[{"name": " Rocanville No. 151", "location": {"latitude": 50.4167, "longitude": -101.75094}}, {"name": " Northwest Arctic Borough", "location": {"latitude": 66.83333, "longitude": -161.00056}}, {"name": " Blue Earth County", "location": {"latitude": 44.03459, "longitude": -94.06703}}, {"name": " February", "location": {"latitude": 36.33344, "longitude": -82.49959}}, {"name": " Bosnia and Herzegovina", "location": {"latitude": 44.25, "longitude": 17.83333}}, {"name": " Dublin", "location": {"latitude": 53.33306, "longitude": -6.24889}}, {"name": " Tibet Autonomous Region", "location": {"latitude": 31.66667, "longitude": 88.0}}, {"name": " Mineralnye Vody", "location": {"latitude": 44.21028, "longitude": 43.13528}}, {"name": " Lackland Air Force Base", "location": {"latitude": 29.38663, "longitude": -98.61797}}, {"name": " Northwest Arctic Borough", "location": {"latitude": 66.83333, "longitude": -161.00056}}, {"name": " Northwest Arctic Borough", "location": {"latitude": 66.83333, "longitude": -161.00056}}, {"name": " Blue Earth County", "location": {"latitude": 44.03459, "longitude": -94.06703}}, {"name": " Rocky Mountain House Airport", "location": {"latitude": 52.42972, "longitude": -114.90417}}, {"name": " Blue Earth County", "location": {"latitude": 44.03459, "longitude": -94.06703}}, {"name": " Piapot No. 110", "location": {"latitude": 49.91677, "longitude": -109.08477}}, {"name": " South America", "location": {"latitude": -14.60485, "longitude": -57.65625}}, {"name": " South America", "location": {"latitude": -14.60485, "longitude": -57.65625}}, {"name": " California", "location": {"latitude": 37.25022, "longitude": -119.75126}}, {"name": " Sacramento", "location": {"latitude": 38.58157, "longitude": -121.4944}}, {"name": " Kapp Linn\u00e9", "location": {"latitude": 78.0627, "longitude": 13.62066}}, {"name": " South America", "location": {"latitude": -14.60485, "longitude": -57.65625}}, {"name": " Mount Stromlo", "location": {"latitude": -35.31616, "longitude": 149.01047}}, {"name": " Blue Earth County", "location": {"latitude": 44.03459, "longitude": -94.06703}}, {"name": " South America", "location": {"latitude": -14.60485, "longitude": -57.65625}}, {"name": " Emerald No. 277", "location": {"latitude": 51.50005, "longitude": -103.91775}}, {"name": " San Diego", "location": {"latitude": 32.71533, "longitude": -117.15726}}, {"name": " Chariton River Hills", "location": {"latitude": 38.87476, "longitude": -92.25046}}, {"name": " Mexico", "location": {"latitude": 23.0, "longitude": -102.0}}, {"name": " South America", "location": {"latitude": -14.60485, "longitude": -57.65625}}, {"name": " Emerald No. 277", "location": {"latitude": 51.50005, "longitude": -103.91775}}, {"name": " Cape Canaveral Air Force Station", "location": {"latitude": 28.4705, "longitude": -80.55759}}, {"name": " Northwest Arctic Borough", "location": {"latitude": 66.83333, "longitude": -161.00056}}, {"name": " Washington", "location": {"latitude": 47.50012, "longitude": -120.50147}}, {"name": " North Carolina", "location": {"latitude": 35.50069, "longitude": -80.00032}}, {"name": " Clear Creek County", "location": {"latitude": 39.6891, "longitude": -105.64436}}, {"name": " City of Le Mars", "location": {"latitude": 42.78102, "longitude": -96.17418}}, {"name": " Eastern Europe", "location": {"latitude": 51.72703, "longitude": 28.38867}}, {"name": " Northwest Arctic Borough", "location": {"latitude": 66.83333, "longitude": -161.00056}}, {"name": " Northwest Arctic Borough", "location": {"latitude": 66.83333, "longitude": -161.00056}}, {"name": " Stranded JP Midget Attack Submarine Type C WW2", "location": {"latitude": 13.42222, "longitude": 144.67551}}, {"name": " Northwest Arctic Borough", "location": {"latitude": 66.83333, "longitude": -161.00056}}, {"name": " South America", "location": {"latitude": -14.60485, "longitude": -57.65625}}, {"name": " Northwest Arctic Borough", "location": {"latitude": 66.83333, "longitude": -161.00056}}, {"name": " South America", "location": {"latitude": -14.60485, "longitude": -57.65625}}, {"name": " Northwest Arctic Borough", "location": {"latitude": 66.83333, "longitude": -161.00056}}, {"name": " South America", "location": {"latitude": -14.60485, "longitude": -57.65625}}, {"name": " Federative Republic of Brazil", "location": {"latitude": -10.0, "longitude": -55.0}}, {"name": " Washington", "location": {"latitude": 47.50012, "longitude": -120.50147}}, {"name": " South America", "location": {"latitude": -14.60485, "longitude": -57.65625}}, {"name": " South America", "location": {"latitude": -14.60485, "longitude": -57.65625}}, {"name": " City of Le Mars", "location": {"latitude": 42.78102, "longitude": -96.17418}}, {"name": " Democratic Republic of the Congo", "location": {"latitude": -2.5, "longitude": 23.5}}, {"name": " Dublin", "location": {"latitude": 53.33306, "longitude": -6.24889}}, {"name": " Village of Turkey Creek", "location": {"latitude": 30.87324, "longitude": -92.41698}}, {"name": " Southern Nations", "location": {"latitude": 6.05862, "longitude": 36.7273}}, {"name": " South America", "location": {"latitude": -14.60485, "longitude": -57.65625}}, {"name": " Eastern Europe", "location": {"latitude": 51.72703, "longitude": 28.38867}}, {"name": " Northwest Arctic Borough", "location": {"latitude": 66.83333, "longitude": -161.00056}}, {"name": " Arizona", "location": {"latitude": 34.5003, "longitude": -111.50098}}, {"name": " Blue Earth County", "location": {"latitude": 44.03459, "longitude": -94.06703}}, {"name": " Washington", "location": {"latitude": 47.50012, "longitude": -120.50147}}, {"name": " Spring Creek", "location": {"latitude": 40.72659, "longitude": -115.5859}}, {"name": " Northwest Arctic Borough", "location": {"latitude": 66.83333, "longitude": -161.00056}}, {"name": " Blue Earth County", "location": {"latitude": 44.03459, "longitude": -94.06703}}, {"name": " Madrid", "location": {"latitude": 40.4165, "longitude": -3.70256}}, {"name": " Northwest Arctic Borough", "location": {"latitude": 66.83333, "longitude": -161.00056}}, {"name": " Alaska", "location": {"latitude": 64.00028, "longitude": -150.00028}}, {"name": " Northwest Arctic Borough", "location": {"latitude": 66.83333, "longitude": -161.00056}}, {"name": " Mount Stromlo", "location": {"latitude": -35.31616, "longitude": 149.01047}}, {"name": " South America", "location": {"latitude": -14.60485, "longitude": -57.65625}}, {"name": " Blue Earth County", "location": {"latitude": 44.03459, "longitude": -94.06703}}, {"name": " Showers Corners", "location": {"latitude": 43.19399, "longitude": -80.58139}}, {"name": " Town of Venus", "location": {"latitude": 32.4308, "longitude": -97.10189}}, {"name": " Tennessee", "location": {"latitude": 35.75035, "longitude": -86.25027}}, {"name": " Northwest Arctic Borough", "location": {"latitude": 66.83333, "longitude": -161.00056}}, {"name": " Crystal Springs", "location": {"latitude": 31.98738, "longitude": -90.35704}}, {"name": " Northwest Arctic Borough", "location": {"latitude": 66.83333, "longitude": -161.00056}}, {"name": " South America", "location": {"latitude": -14.60485, "longitude": -57.65625}}, {"name": " Berkeley County", "location": {"latitude": 39.46407, "longitude": -78.02754}}, {"name": " South America", "location": {"latitude": -14.60485, "longitude": -57.65625}}, {"name": " Northwest Arctic Borough", "location": {"latitude": 66.83333, "longitude": -161.00056}}, {"name": " Partido de Tres de Febrero", "location": {"latitude": -34.59987, "longitude": -58.56606}}, {"name": " Town of Venus", "location": {"latitude": 32.4308, "longitude": -97.10189}}, {"name": " Prairie Creek", "location": {"latitude": 36.34202, "longitude": -94.06187}}, {"name": " Independent State of Papua New Guinea", "location": {"latitude": -6.0, "longitude": 147.0}}, {"name": " Annoual", "location": {"latitude": 35.12985, "longitude": -3.58562}}, {"name": " Santa Barbara County", "location": {"latitude": 34.53834, "longitude": -120.03078}}, {"name": " Northwest Arctic Borough", "location": {"latitude": 66.83333, "longitude": -161.00056}}, {"name": " Tokyo", "location": {"latitude": 35.6895, "longitude": 139.69171}}, {"name": " Blue Earth County", "location": {"latitude": 44.03459, "longitude": -94.06703}}, {"name": " Michigan", "location": {"latitude": 44.25029, "longitude": -85.50033}}, {"name": " South America", "location": {"latitude": -14.60485, "longitude": -57.65625}}, {"name": " Mount Stromlo", "location": {"latitude": -35.31616, "longitude": 149.01047}}, {"name": " Nice", "location": {"latitude": 43.70313, "longitude": 7.26608}}, {"name": " Ginkgo Petrified Forest State Park", "location": {"latitude": 46.94902, "longitude": -120.00283}}, {"name": " Oklahoma", "location": {"latitude": 35.49209, "longitude": -97.50328}}, {"name": " Ocean County", "location": {"latitude": 39.866, "longitude": -74.25003}}, {"name": " Lal\u012bbela", "location": {"latitude": 12.03219, "longitude": 39.04756}}, {"name": " Scott No. 98", "location": {"latitude": 49.91676, "longitude": -104.25111}}, {"name": " Northwest Arctic Borough", "location": {"latitude": 66.83333, "longitude": -161.00056}}, {"name": " Northwest Arctic Borough", "location": {"latitude": 66.83333, "longitude": -161.00056}}, {"name": " California", "location": {"latitude": 37.25022, "longitude": -119.75126}}, {"name": " Central African Republic", "location": {"latitude": 7.0, "longitude": 21.0}}, {"name": " California", "location": {"latitude": 37.25022, "longitude": -119.75126}}, {"name": " Eastern Europe", "location": {"latitude": 51.72703, "longitude": 28.38867}}, {"name": " Pawcatuck River State Wildlife Management Area", "location": {"latitude": 41.3501, "longitude": -71.83424}}, {"name": " City of Sandy Springs", "location": {"latitude": 33.93667, "longitude": -84.37032}}, {"name": " Northwest Arctic Borough", "location": {"latitude": 66.83333, "longitude": -161.00056}}, {"name": " Opera", "location": {"latitude": 45.37307, "longitude": 9.21115}}, {"name": " Northwest Arctic Borough", "location": {"latitude": 66.83333, "longitude": -161.00056}}, {"name": " Northwest Arctic Borough", "location": {"latitude": 66.83333, "longitude": -161.00056}}, {"name": " Blue Earth County", "location": {"latitude": 44.03459, "longitude": -94.06703}}, {"name": " Northwest Arctic Borough", "location": {"latitude": 66.83333, "longitude": -161.00056}}, {"name": " Mount Stromlo", "location": {"latitude": -35.31616, "longitude": 149.01047}}, {"name": " Canyon County", "location": {"latitude": 43.62513, "longitude": -116.70929}}, {"name": " Soda Lake 636 Dam", "location": {"latitude": 36.90662, "longitude": -121.60772}}, {"name": " Lake Champlain Toll Bridge", "location": {"latitude": 44.03228, "longitude": -73.42373}}, {"name": " Baffin Bay", "location": {"latitude": 74.00135, "longitude": -67.99642}}, {"name": " Cortez", "location": {"latitude": 37.34888, "longitude": -108.58593}}, {"name": " Blue Earth County", "location": {"latitude": 44.03459, "longitude": -94.06703}}, {"name": " Paris", "location": {"latitude": 48.85341, "longitude": 2.3488}}, {"name": " Shanghai", "location": {"latitude": 31.22222, "longitude": 121.45806}}, {"name": " Trelew", "location": {"latitude": -43.24895, "longitude": -65.30505}}, {"name": " Soda Lake 636 Dam", "location": {"latitude": 36.90662, "longitude": -121.60772}}, {"name": " Northwest Arctic Borough", "location": {"latitude": 66.83333, "longitude": -161.00056}}, {"name": " San Juan", "location": {"latitude": 18.46633, "longitude": -66.10572}}, {"name": " United Kingdom of Great Britain and Northern Ireland", "location": {"latitude": 54.75844, "longitude": -2.69531}}, {"name": " Federative Republic of Brazil", "location": {"latitude": -10.0, "longitude": -55.0}}, {"name": " City of Sandy Springs", "location": {"latitude": 33.93667, "longitude": -84.37032}}, {"name": " Eastern Europe", "location": {"latitude": 51.72703, "longitude": 28.38867}}, {"name": " California", "location": {"latitude": 37.25022, "longitude": -119.75126}}, {"name": " New York", "location": {"latitude": 43.00035, "longitude": -75.4999}}, {"name": " Elevenmile Creek", "location": {"latitude": 41.92173, "longitude": -78.11334}}, {"name": " Eastern Europe", "location": {"latitude": 51.72703, "longitude": 28.38867}}, {"name": " South America", "location": {"latitude": -14.60485, "longitude": -57.65625}}, {"name": " Alaska", "location": {"latitude": 64.00028, "longitude": -150.00028}}, {"name": " Dubai", "location": {"latitude": 25.0657, "longitude": 55.17128}}, {"name": " Red Sea", "location": {"latitude": 19.96667, "longitude": 35.66667}}, {"name": " Northwest Arctic Borough", "location": {"latitude": 66.83333, "longitude": -161.00056}}, {"name": " Northwest Arctic Borough", "location": {"latitude": 66.83333, "longitude": -161.00056}}, {"name": " Mount Stromlo", "location": {"latitude": -35.31616, "longitude": 149.01047}}, {"name": " Northwest Arctic Borough", "location": {"latitude": 66.83333, "longitude": -161.00056}}, {"name": " Blue Earth County", "location": {"latitude": 44.03459, "longitude": -94.06703}}, {"name": " Blue Earth County", "location": {"latitude": 44.03459, "longitude": -94.06703}}, {"name": " South America", "location": {"latitude": -14.60485, "longitude": -57.65625}}, {"name": " Maine", "location": {"latitude": 45.50032, "longitude": -69.24977}}, {"name": " Northwest Arctic Borough", "location": {"latitude": 66.83333, "longitude": -161.00056}}, {"name": " Northwest Arctic Borough", "location": {"latitude": 66.83333, "longitude": -161.00056}}, {"name": " New Zealand", "location": {"latitude": -42.0, "longitude": 174.0}}, {"name": " Mission Viejo", "location": {"latitude": 33.60002, "longitude": -117.672}}, {"name": " Northwest Arctic Borough", "location": {"latitude": 66.83333, "longitude": -161.00056}}, {"name": " South America", "location": {"latitude": -14.60485, "longitude": -57.65625}}, {"name": " South Carolina", "location": {"latitude": 34.00043, "longitude": -81.00009}}, {"name": " Blue Earth County", "location": {"latitude": 44.03459, "longitude": -94.06703}}, {"name": " Atlantic Coast Medical Transport", "location": {"latitude": 33.90747, "longitude": -78.84017}}, {"name": " South America", "location": {"latitude": -14.60485, "longitude": -57.65625}}, {"name": " San Juan", "location": {"latitude": 18.46633, "longitude": -66.10572}}, {"name": " South America", "location": {"latitude": -14.60485, "longitude": -57.65625}}, {"name": " Poluostrov Yavay", "location": {"latitude": 72.48748, "longitude": 75.29114}}, {"name": " Kingdom of Thailand", "location": {"latitude": 15.5, "longitude": 101.0}}, {"name": " Mercury", "location": {"latitude": 45.67452, "longitude": 6.33688}}, {"name": " Washington", "location": {"latitude": 47.50012, "longitude": -120.50147}}, {"name": " Loop", "location": {"latitude": 54.15, "longitude": 9.95}}, {"name": " Eureka Creek", "location": {"latitude": -13.61667, "longitude": 132.16667}}, {"name": " Northwest Arctic Borough", "location": {"latitude": 66.83333, "longitude": -161.00056}}, {"name": " South America", "location": {"latitude": -14.60485, "longitude": -57.65625}}, {"name": " South America", "location": {"latitude": -14.60485, "longitude": -57.65625}}, {"name": " Los Angeles County", "location": {"latitude": 34.19801, "longitude": -118.26102}}, {"name": " Federated States of Micronesia", "location": {"latitude": 6.924, "longitude": 158.162}}, {"name": " United Kingdom of Great Britain and Northern Ireland", "location": {"latitude": 54.75844, "longitude": -2.69531}}, {"name": " Dominican Republic", "location": {"latitude": 19.0, "longitude": -70.66667}}, {"name": " South America", "location": {"latitude": -14.60485, "longitude": -57.65625}}, {"name": " Amazon Institute of Scientific Research", "location": {"latitude": -4.20601, "longitude": -69.94352}}, {"name": " South America", "location": {"latitude": -14.60485, "longitude": -57.65625}}, {"name": " Ocean County", "location": {"latitude": 39.866, "longitude": -74.25003}}, {"name": " San Lorenzo River", "location": {"latitude": 36.96412, "longitude": -122.01246}}, {"name": " Town of Blue River", "location": {"latitude": 39.4368, "longitude": -106.04046}}, {"name": " Rwenzori Mountains National Park", "location": {"latitude": 0.2236, "longitude": 29.9242}}, {"name": " South America", "location": {"latitude": -14.60485, "longitude": -57.65625}}, {"name": " Northwest Arctic Borough", "location": {"latitude": 66.83333, "longitude": -161.00056}}, {"name": " City of Sandy Springs", "location": {"latitude": 33.93667, "longitude": -84.37032}}, {"name": " Georgia", "location": {"latitude": 41.99998, "longitude": 43.4999}}, {"name": " Rocanville No. 151", "location": {"latitude": 50.4167, "longitude": -101.75094}}, {"name": " South America", "location": {"latitude": -14.60485, "longitude": -57.65625}}, {"name": " Beijing", "location": {"latitude": 39.9075, "longitude": 116.39723}}, {"name": " Blue Earth County", "location": {"latitude": 44.03459, "longitude": -94.06703}}, {"name": " Colorado", "location": {"latitude": 39.00027, "longitude": -105.50083}}, {"name": " Nevada", "location": {"latitude": 39.25021, "longitude": -116.75119}}, {"name": " Northwest Arctic Borough", "location": {"latitude": 66.83333, "longitude": -161.00056}}, {"name": " South Dakota", "location": {"latitude": 44.50026, "longitude": -100.25069}}, {"name": " Kingdom of Spain", "location": {"latitude": 40.0, "longitude": -4.0}}, {"name": " Northwest Arctic Borough", "location": {"latitude": 66.83333, "longitude": -161.00056}}, {"name": " Oregon", "location": {"latitude": 44.00013, "longitude": -120.50139}}, {"name": " Ocean County", "location": {"latitude": 39.866, "longitude": -74.25003}}, {"name": " United States", "location": {"latitude": 39.76, "longitude": -98.5}}, {"name": " South America", "location": {"latitude": -14.60485, "longitude": -57.65625}}, {"name": " Concepci\u00f3n", "location": {"latitude": -36.82699, "longitude": -73.04977}}, {"name": " Camarona Caribbean Lodge", "location": {"latitude": 9.65755, "longitude": -82.7538}}, {"name": " Alaska", "location": {"latitude": 64.00028, "longitude": -150.00028}}, {"name": " Blue Earth County", "location": {"latitude": 44.03459, "longitude": -94.06703}}, {"name": " Message", "location": {"latitude": 44.72481, "longitude": 5.2052}}, {"name": " H2 Avila Hotel", "location": {"latitude": 40.66344, "longitude": -4.68011}}, {"name": " Arizona", "location": {"latitude": 34.5003, "longitude": -111.50098}}, {"name": " College Station", "location": {"latitude": 30.62798, "longitude": -96.33441}}, {"name": " Northwest Arctic Borough", "location": {"latitude": 66.83333, "longitude": -161.00056}}, {"name": " Chukchi Sea", "location": {"latitude": 68.2025, "longitude": -167.55222}}, {"name": " Blue Earth County", "location": {"latitude": 44.03459, "longitude": -94.06703}}, {"name": " Geographical Center of North America Monument", "location": {"latitude": 48.35528, "longitude": -99.99958}}, {"name": " Puerto Rico", "location": {"latitude": 18.24829, "longitude": -66.49989}}, {"name": " United States", "location": {"latitude": 39.76, "longitude": -98.5}}, {"name": " New Zealand", "location": {"latitude": -42.0, "longitude": 174.0}}, {"name": " Loop", "location": {"latitude": 54.15, "longitude": 9.95}}, {"name": " Blue Earth County", "location": {"latitude": 44.03459, "longitude": -94.06703}}, {"name": " Ocean County", "location": {"latitude": 39.866, "longitude": -74.25003}}, {"name": " Madrid", "location": {"latitude": 40.4165, "longitude": -3.70256}}, {"name": " Fort Collins", "location": {"latitude": 40.58526, "longitude": -105.08442}}, {"name": " Guam", "location": {"latitude": 13.47861, "longitude": 144.81834}}, {"name": " Cape Canaveral Air Force Station", "location": {"latitude": 28.4705, "longitude": -80.55759}}, {"name": " Administrative Zone 2", "location": {"latitude": 13.68513, "longitude": 40.05615}}, {"name": " Blue Earth County", "location": {"latitude": 44.03459, "longitude": -94.06703}}, {"name": " South America", "location": {"latitude": -14.60485, "longitude": -57.65625}}, {"name": " City of Sandy Springs", "location": {"latitude": 33.93667, "longitude": -84.37032}}, {"name": " Washington", "location": {"latitude": 47.50012, "longitude": -120.50147}}, {"name": " Eastern Europe", "location": {"latitude": 51.72703, "longitude": 28.38867}}, {"name": " Camp County", "location": {"latitude": 32.97322, "longitude": -94.97848}}, {"name": " Loop", "location": {"latitude": 54.15, "longitude": 9.95}}, {"name": " Blue Earth County", "location": {"latitude": 44.03459, "longitude": -94.06703}}, {"name": " Beijing", "location": {"latitude": 39.9075, "longitude": 116.39723}}, {"name": " Geographical Center of North America Monument", "location": {"latitude": 48.35528, "longitude": -99.99958}}, {"name": " South America", "location": {"latitude": -14.60485, "longitude": -57.65625}}, {"name": " Greenwich", "location": {"latitude": 41.02649, "longitude": -73.62846}}, {"name": " Syrian Arab Republic", "location": {"latitude": 35.0, "longitude": 38.0}}, {"name": " Village of Verdel", "location": {"latitude": 42.8114, "longitude": -98.1933}}, {"name": " Atlanta", "location": {"latitude": 33.749, "longitude": -84.38798}}, {"name": " Kennedy Space Center / Cape Canaveral Air Force Station Fire Station 1", "location": {"latitude": 28.48269, "longitude": -80.57765}}, {"name": " North Carolina", "location": {"latitude": 35.50069, "longitude": -80.00032}}, {"name": " Northwest Arctic Borough", "location": {"latitude": 66.83333, "longitude": -161.00056}}, {"name": " Franklin Square", "location": {"latitude": 40.70732, "longitude": -73.67596}}, {"name": " Northwest Arctic Borough", "location": {"latitude": 66.83333, "longitude": -161.00056}}, {"name": " Northwest Arctic Borough", "location": {"latitude": 66.83333, "longitude": -161.00056}}, {"name": " Salt Lake City", "location": {"latitude": 40.76078, "longitude": -111.89105}}, {"name": " Republic of Iraq", "location": {"latitude": 33.0, "longitude": 44.0}}, {"name": " Alaska", "location": {"latitude": 64.00028, "longitude": -150.00028}}, {"name": " Rocanville No. 151", "location": {"latitude": 50.4167, "longitude": -101.75094}}, {"name": " United Kingdom of Great Britain and Northern Ireland", "location": {"latitude": 54.75844, "longitude": -2.69531}}, {"name": " Wild Horse Canyon", "location": {"latitude": 49.73307, "longitude": -119.68568}}, {"name": " Northwest Arctic Borough", "location": {"latitude": 66.83333, "longitude": -161.00056}}, {"name": " Loop", "location": {"latitude": 54.15, "longitude": 9.95}}, {"name": " Tokyo", "location": {"latitude": 35.6895, "longitude": 139.69171}}, {"name": " Miraedream Women's Hospital", "location": {"latitude": 37.48194, "longitude": 126.94861}}, {"name": " Maine", "location": {"latitude": 45.50032, "longitude": -69.24977}}, {"name": " South America", "location": {"latitude": -14.60485, "longitude": -57.65625}}, {"name": " Northwest Arctic Borough", "location": {"latitude": 66.83333, "longitude": -161.00056}}, {"name": " Northwest Arctic Borough", "location": {"latitude": 66.83333, "longitude": -161.00056}}, {"name": " California", "location": {"latitude": 37.25022, "longitude": -119.75126}}, {"name": " City of Half Moon Bay", "location": {"latitude": 37.4687, "longitude": -122.43812}}, {"name": " Baltimore County", "location": {"latitude": 39.44307, "longitude": -76.61632}}, {"name": " Alaska", "location": {"latitude": 64.00028, "longitude": -150.00028}}, {"name": " Transmigrasi Blok C 0 Unit I Lumu", "location": {"latitude": -0.44981, "longitude": 102.65559}}, {"name": " Sacred Heart", "location": {"latitude": 44.7869, "longitude": -95.35168}}, {"name": " South America", "location": {"latitude": -14.60485, "longitude": -57.65625}}, {"name": " Rocanville No. 151", "location": {"latitude": 50.4167, "longitude": -101.75094}}, {"name": " Macon County", "location": {"latitude": 39.86, "longitude": -88.9616}}, {"name": " Northwest Arctic Borough", "location": {"latitude": 66.83333, "longitude": -161.00056}}, {"name": " Rocanville No. 151", "location": {"latitude": 50.4167, "longitude": -101.75094}}, {"name": " Blue Earth County", "location": {"latitude": 44.03459, "longitude": -94.06703}}, {"name": " Suffolk County", "location": {"latitude": 42.3555, "longitude": -71.06575}}, {"name": " Parish of Portland", "location": {"latitude": 18.13333, "longitude": -76.53333}}, {"name": " Orange County", "location": {"latitude": 33.67691, "longitude": -117.77617}}, {"name": " Blue Earth County", "location": {"latitude": 44.03459, "longitude": -94.06703}}, {"name": " City of University Place", "location": {"latitude": 47.21484, "longitude": -122.54608}}, {"name": " Sherwood Content", "location": {"latitude": 18.39116, "longitude": -77.62834}}, {"name": " South America", "location": {"latitude": -14.60485, "longitude": -57.65625}}, {"name": " Southern California Logistics Airport", "location": {"latitude": 34.58696, "longitude": -117.37444}}, {"name": " Scaling Oil Field", "location": {"latitude": 33.60455, "longitude": -98.40311}}, {"name": " Yinchuan", "location": {"latitude": 38.46806, "longitude": 106.27306}}, {"name": " South America", "location": {"latitude": -14.60485, "longitude": -57.65625}}, {"name": " Emerald No. 277", "location": {"latitude": 51.50005, "longitude": -103.91775}}, {"name": " South America", "location": {"latitude": -14.60485, "longitude": -57.65625}}, {"name": " South America", "location": {"latitude": -14.60485, "longitude": -57.65625}}, {"name": " El Malpa\u00eds", "location": {"latitude": 29.75517, "longitude": -105.78577}}, {"name": " Northwest Arctic Borough", "location": {"latitude": 66.83333, "longitude": -161.00056}}, {"name": " South America", "location": {"latitude": -14.60485, "longitude": -57.65625}}, {"name": " South America", "location": {"latitude": -14.60485, "longitude": -57.65625}}, {"name": " Little Kanawha River Bridge", "location": {"latitude": 38.92175, "longitude": -81.09483}}, {"name": " Ocean County", "location": {"latitude": 39.866, "longitude": -74.25003}}, {"name": " Shanghai", "location": {"latitude": 31.22222, "longitude": 121.45806}}, {"name": " South America", "location": {"latitude": -14.60485, "longitude": -57.65625}}, {"name": " Naval Air Station Patuxent River", "location": {"latitude": 38.28374, "longitude": -76.41853}}, {"name": " City of Sandy Springs", "location": {"latitude": 33.93667, "longitude": -84.37032}}, {"name": " Blue Earth County", "location": {"latitude": 44.03459, "longitude": -94.06703}}, {"name": " South America", "location": {"latitude": -14.60485, "longitude": -57.65625}}, {"name": " Salt Lake City", "location": {"latitude": 40.76078, "longitude": -111.89105}}, {"name": " Salt Lake City", "location": {"latitude": 40.76078, "longitude": -111.89105}}, {"name": " Alaska", "location": {"latitude": 64.00028, "longitude": -150.00028}}, {"name": " Franklin Square", "location": {"latitude": 40.70732, "longitude": -73.67596}}, {"name": " Mount Stromlo", "location": {"latitude": -35.31616, "longitude": 149.01047}}, {"name": " Bering Sea", "location": {"latitude": 60.0, "longitude": -175.0}}, {"name": " South America", "location": {"latitude": -14.60485, "longitude": -57.65625}}, {"name": " Loop", "location": {"latitude": 54.15, "longitude": 9.95}}, {"name": " Blue Earth County", "location": {"latitude": 44.03459, "longitude": -94.06703}}, {"name": " Eastern Europe", "location": {"latitude": 51.72703, "longitude": 28.38867}}, {"name": " South America", "location": {"latitude": -14.60485, "longitude": -57.65625}}, {"name": " Northwest Arctic Borough", "location": {"latitude": 66.83333, "longitude": -161.00056}}, {"name": " Madrid", "location": {"latitude": 40.4165, "longitude": -3.70256}}, {"name": " Burkina Faso", "location": {"latitude": 12.5, "longitude": -1.66667}}, {"name": " Blue Earth County", "location": {"latitude": 44.03459, "longitude": -94.06703}}, {"name": " Northwest Arctic Borough", "location": {"latitude": 66.83333, "longitude": -161.00056}}, {"name": " Northwest Arctic Borough", "location": {"latitude": 66.83333, "longitude": -161.00056}}, {"name": " New York City", "location": {"latitude": 40.71427, "longitude": -74.00597}}, {"name": " Salt Lake City", "location": {"latitude": 40.76078, "longitude": -111.89105}}, {"name": " Blue Earth County", "location": {"latitude": 44.03459, "longitude": -94.06703}}, {"name": " Los Angeles", "location": {"latitude": 34.05223, "longitude": -118.24368}}, {"name": " Eastern Europe", "location": {"latitude": 51.72703, "longitude": 28.38867}}, {"name": " Talkeetna Mountains", "location": {"latitude": 62.37278, "longitude": -148.72944}}, {"name": " Cape Canaveral Air Force Station", "location": {"latitude": 28.4705, "longitude": -80.55759}}, {"name": " Salt Lake City", "location": {"latitude": 40.76078, "longitude": -111.89105}}, {"name": " Blue Earth County", "location": {"latitude": 44.03459, "longitude": -94.06703}}, {"name": " Mineralnye Vody", "location": {"latitude": 44.21028, "longitude": 43.13528}}, {"name": " El Cabur\u00e9", "location": {"latitude": -26.01667, "longitude": -62.36667}}, {"name": " Canyon County", "location": {"latitude": 43.62513, "longitude": -116.70929}}, {"name": " Northwest Arctic Borough", "location": {"latitude": 66.83333, "longitude": -161.00056}}, {"name": " South America", "location": {"latitude": -14.60485, "longitude": -57.65625}}, {"name": " Guam", "location": {"latitude": 13.47861, "longitude": 144.81834}}, {"name": " Northwest Arctic Borough", "location": {"latitude": 66.83333, "longitude": -161.00056}}, {"name": " Blue Earth County", "location": {"latitude": 44.03459, "longitude": -94.06703}}, {"name": " South America", "location": {"latitude": -14.60485, "longitude": -57.65625}}, {"name": " New England District", "location": {"latitude": -30.51667, "longitude": 151.65}}, {"name": " Westland Row", "location": {"latitude": 53.34281, "longitude": -6.2502}}, {"name": " Rocanville No. 151", "location": {"latitude": 50.4167, "longitude": -101.75094}}, {"name": " Northwest Arctic Borough", "location": {"latitude": 66.83333, "longitude": -161.00056}}, {"name": " City of Sandy Springs", "location": {"latitude": 33.93667, "longitude": -84.37032}}, {"name": " Northwest Arctic Borough", "location": {"latitude": 66.83333, "longitude": -161.00056}}, {"name": " Double Header Mine", "location": {"latitude": 31.6312, "longitude": -110.80453}}, {"name": " Mexico", "location": {"latitude": 23.0, "longitude": -102.0}}, {"name": " \u00d3zd", "location": {"latitude": 48.21667, "longitude": 20.3}}, {"name": " Mission Viejo", "location": {"latitude": 33.60002, "longitude": -117.672}}, {"name": " Ostanovochnyy Punkt 355 km", "location": {"latitude": 53.0297, "longitude": 38.2145}}, {"name": " Northwest Arctic Borough", "location": {"latitude": 66.83333, "longitude": -161.00056}}, {"name": " Fort Davis", "location": {"latitude": 30.58821, "longitude": -103.89463}}, {"name": " Blue Earth County", "location": {"latitude": 44.03459, "longitude": -94.06703}}, {"name": " Loop", "location": {"latitude": 54.15, "longitude": 9.95}}, {"name": " Alice Springs", "location": {"latitude": -23.69748, "longitude": 133.88362}}, {"name": " Dominican Republic", "location": {"latitude": 19.0, "longitude": -70.66667}}, {"name": " Northwest Arctic Borough", "location": {"latitude": 66.83333, "longitude": -161.00056}}, {"name": " South America", "location": {"latitude": -14.60485, "longitude": -57.65625}}, {"name": " Loop", "location": {"latitude": 54.15, "longitude": 9.95}}, {"name": " Japan", "location": {"latitude": 35.68536, "longitude": 139.75309}}, {"name": " North Carolina", "location": {"latitude": 35.50069, "longitude": -80.00032}}, {"name": " Mount Stromlo", "location": {"latitude": -35.31616, "longitude": 149.01047}}, {"name": " South America", "location": {"latitude": -14.60485, "longitude": -57.65625}}, {"name": " Federative Republic of Brazil", "location": {"latitude": -10.0, "longitude": -55.0}}, {"name": " California", "location": {"latitude": 37.25022, "longitude": -119.75126}}, {"name": " Seventy-Six Townhall", "location": {"latitude": 41.39253, "longitude": -91.21404}}, {"name": " Northwest Arctic Borough", "location": {"latitude": 66.83333, "longitude": -161.00056}}, {"name": " Blue Earth County", "location": {"latitude": 44.03459, "longitude": -94.06703}}, {"name": " River Nile", "location": {"latitude": 19.0, "longitude": 33.2}}, {"name": " Maine", "location": {"latitude": 45.50032, "longitude": -69.24977}}, {"name": " South America", "location": {"latitude": -14.60485, "longitude": -57.65625}}, {"name": " New York City", "location": {"latitude": 40.71427, "longitude": -74.00597}}, {"name": " South America", "location": {"latitude": -14.60485, "longitude": -57.65625}}, {"name": " Transmigrasi Blok C 1 Unit I Lumu", "location": {"latitude": -0.45079, "longitude": 102.68399}}, {"name": " Florida", "location": {"latitude": 28.75054, "longitude": -82.5001}}, {"name": " Blue Earth County", "location": {"latitude": 44.03459, "longitude": -94.06703}}, {"name": " Frankfurt am Main", "location": {"latitude": 50.13083, "longitude": 8.66361}}, {"name": " Northwest Arctic Borough", "location": {"latitude": 66.83333, "longitude": -161.00056}}, {"name": " Mount Stromlo", "location": {"latitude": -35.31616, "longitude": 149.01047}}, {"name": " Northwest Arctic Borough", "location": {"latitude": 66.83333, "longitude": -161.00056}}, {"name": " North Pole", "location": {"latitude": 64.75111, "longitude": -147.34944}}, {"name": " Northwest Arctic Borough", "location": {"latitude": 66.83333, "longitude": -161.00056}}, {"name": " Colorado River Indian Reservation", "location": {"latitude": 33.93172, "longitude": -114.38864}}, {"name": " Northwest Arctic Borough", "location": {"latitude": 66.83333, "longitude": -161.00056}}, {"name": " Northwest Arctic Borough", "location": {"latitude": 66.83333, "longitude": -161.00056}}, {"name": " Minnesota", "location": {"latitude": 46.25024, "longitude": -94.25055}}, {"name": " South America", "location": {"latitude": -14.60485, "longitude": -57.65625}}, {"name": " Sacramento", "location": {"latitude": 38.58157, "longitude": -121.4944}}, {"name": " South America", "location": {"latitude": -14.60485, "longitude": -57.65625}}, {"name": " Sea and Navigation Pavilion", "location": {"latitude": 44.4069, "longitude": 8.91906}}, {"name": " Northwest Arctic Borough", "location": {"latitude": 66.83333, "longitude": -161.00056}}, {"name": " Northwest Arctic Borough", "location": {"latitude": 66.83333, "longitude": -161.00056}}, {"name": " Blue Earth County", "location": {"latitude": 44.03459, "longitude": -94.06703}}, {"name": " Fort Davis", "location": {"latitude": 30.58821, "longitude": -103.89463}}, {"name": " Missouri", "location": {"latitude": 38.25031, "longitude": -92.50046}}, {"name": " DC Ranch", "location": {"latitude": 33.66754, "longitude": -111.86542}}, {"name": " New Hampshire", "location": {"latitude": 43.66702, "longitude": -71.4998}}, {"name": " United States", "location": {"latitude": 39.76, "longitude": -98.5}}, {"name": " Rio de Janeiro", "location": {"latitude": -22.90278, "longitude": -43.2075}}, {"name": " Northwest Arctic Borough", "location": {"latitude": 66.83333, "longitude": -161.00056}}, {"name": " DC Ranch", "location": {"latitude": 33.66754, "longitude": -111.86542}}, {"name": " Mount Stromlo", "location": {"latitude": -35.31616, "longitude": 149.01047}}, {"name": " Scott No. 98", "location": {"latitude": 49.91676, "longitude": -104.25111}}, {"name": " Blue Earth County", "location": {"latitude": 44.03459, "longitude": -94.06703}}, {"name": " Irish Omerbane", "location": {"latitude": 55.0, "longitude": -6.28333}}, {"name": " Explore Park", "location": {"latitude": 37.25847, "longitude": -79.86504}}, {"name": " Delaware", "location": {"latitude": 39.00039, "longitude": -75.49992}}, {"name": " Blue Earth County", "location": {"latitude": 44.03459, "longitude": -94.06703}}, {"name": " United States", "location": {"latitude": 39.76, "longitude": -98.5}}, {"name": " City of Sandy Springs", "location": {"latitude": 33.93667, "longitude": -84.37032}}, {"name": " Allan", "location": {"latitude": 44.4996, "longitude": 4.7879}}, {"name": " Northwest Arctic Borough", "location": {"latitude": 66.83333, "longitude": -161.00056}}, {"name": " New Style Church", "location": {"latitude": 32.87707, "longitude": -86.65109}}, {"name": " San Juan", "location": {"latitude": 18.46633, "longitude": -66.10572}}, {"name": " Belo Horizonte", "location": {"latitude": -19.92083, "longitude": -43.93778}}, {"name": " California", "location": {"latitude": 37.25022, "longitude": -119.75126}}, {"name": " Blue Earth County", "location": {"latitude": 44.03459, "longitude": -94.06703}}, {"name": " South America", "location": {"latitude": -14.60485, "longitude": -57.65625}}, {"name": " Eastern Europe", "location": {"latitude": 51.72703, "longitude": 28.38867}}, {"name": " Northwest Arctic Borough", "location": {"latitude": 66.83333, "longitude": -161.00056}}, {"name": " Black Mountains", "location": {"latitude": 51.96667, "longitude": -3.11667}}, {"name": " Republic of France", "location": {"latitude": 46.0, "longitude": 2.0}}, {"name": " Mount Stromlo", "location": {"latitude": -35.31616, "longitude": 149.01047}}, {"name": " Beijing", "location": {"latitude": 39.9075, "longitude": 116.39723}}, {"name": " Northwest Arctic Borough", "location": {"latitude": 66.83333, "longitude": -161.00056}}, {"name": " Blue Earth County", "location": {"latitude": 44.03459, "longitude": -94.06703}}, {"name": " Colorado", "location": {"latitude": 39.00027, "longitude": -105.50083}}, {"name": " South America", "location": {"latitude": -14.60485, "longitude": -57.65625}}, {"name": " Federal Democratic Republic of Ethiopia", "location": {"latitude": 9.0, "longitude": 39.5}}, {"name": " Mount Stromlo", "location": {"latitude": -35.31616, "longitude": 149.01047}}, {"name": " South America", "location": {"latitude": -14.60485, "longitude": -57.65625}}, {"name": " Panama City", "location": {"latitude": 30.15946, "longitude": -85.65983}}, {"name": " Menlo Park", "location": {"latitude": 37.45383, "longitude": -122.18219}}, {"name": " Canada", "location": {"latitude": 60.10867, "longitude": -113.64258}}, {"name": " Min\u0163aqat al \u1e28ud\u016bd ash Sham\u0101l\u012byah", "location": {"latitude": 30.25, "longitude": 42.41667}}, {"name": " Federative Republic of Brazil", "location": {"latitude": -10.0, "longitude": -55.0}}, {"name": " Washington", "location": {"latitude": 47.50012, "longitude": -120.50147}}, {"name": " Annapolis", "location": {"latitude": 38.97845, "longitude": -76.49218}}, {"name": " New Zealand", "location": {"latitude": -42.0, "longitude": 174.0}}, {"name": " Northwest Arctic Borough", "location": {"latitude": 66.83333, "longitude": -161.00056}}, {"name": " Kingsley No. 124", "location": {"latitude": 50.16673, "longitude": -102.5843}}, {"name": " City of Sandy Springs", "location": {"latitude": 33.93667, "longitude": -84.37032}}, {"name": " Blue Earth County", "location": {"latitude": 44.03459, "longitude": -94.06703}}, {"name": " Colorado", "location": {"latitude": 39.00027, "longitude": -105.50083}}, {"name": " South America", "location": {"latitude": -14.60485, "longitude": -57.65625}}, {"name": " South America", "location": {"latitude": -14.60485, "longitude": -57.65625}}, {"name": " Mount Stromlo", "location": {"latitude": -35.31616, "longitude": 149.01047}}, {"name": " South America", "location": {"latitude": -14.60485, "longitude": -57.65625}}, {"name": " Northwest Arctic Borough", "location": {"latitude": 66.83333, "longitude": -161.00056}}, {"name": " Colorado", "location": {"latitude": 39.00027, "longitude": -105.50083}}, {"name": " South America", "location": {"latitude": -14.60485, "longitude": -57.65625}}, {"name": " Quinta L\u00e9gua", "location": {"latitude": -29.2238, "longitude": -51.1732}}, {"name": " South America", "location": {"latitude": -14.60485, "longitude": -57.65625}}, {"name": " South America", "location": {"latitude": -14.60485, "longitude": -57.65625}}, {"name": " Bering Sea", "location": {"latitude": 60.0, "longitude": -175.0}}, {"name": " River Nile", "location": {"latitude": 19.0, "longitude": 33.2}}, {"name": " Tokyo", "location": {"latitude": 35.6895, "longitude": 139.69171}}, {"name": " Northwest Arctic Borough", "location": {"latitude": 66.83333, "longitude": -161.00056}}, {"name": " City and County of San Francisco", "location": {"latitude": 37.77823, "longitude": -122.4425}}, {"name": " New York", "location": {"latitude": 43.00035, "longitude": -75.4999}}, {"name": " Puerto Rico", "location": {"latitude": 18.24829, "longitude": -66.49989}}, {"name": " Village of Fall Creek", "location": {"latitude": 44.7637, "longitude": -91.27856}}, {"name": " San Francisco Bay Area", "location": {"latitude": 37.77239, "longitude": -122.42349}}, {"name": " Washington", "location": {"latitude": 47.50012, "longitude": -120.50147}}, {"name": " Santa Barbara County", "location": {"latitude": 34.53834, "longitude": -120.03078}}, {"name": " South America", "location": {"latitude": -14.60485, "longitude": -57.65625}}, {"name": " Northwest Arctic Borough", "location": {"latitude": 66.83333, "longitude": -161.00056}}, {"name": " Northwest Arctic Borough", "location": {"latitude": 66.83333, "longitude": -161.00056}}, {"name": " Northwest Arctic Borough", "location": {"latitude": 66.83333, "longitude": -161.00056}}, {"name": " Moscow Oblast", "location": {"latitude": 55.75, "longitude": 37.5}}, {"name": " Alaska", "location": {"latitude": 64.00028, "longitude": -150.00028}}, {"name": " Blue Earth County", "location": {"latitude": 44.03459, "longitude": -94.06703}}, {"name": " River Nile", "location": {"latitude": 19.0, "longitude": 33.2}}, {"name": " United Arab Emirates", "location": {"latitude": 23.75, "longitude": 54.5}}, {"name": " Northwest Arctic Borough", "location": {"latitude": 66.83333, "longitude": -161.00056}}, {"name": " Beechwood Avenue", "location": {"latitude": 53.32125, "longitude": -6.25414}}, {"name": " Polk County", "location": {"latitude": 41.6855, "longitude": -93.57353}}, {"name": " Elwha River Bridge", "location": {"latitude": 48.10105, "longitude": -123.5581}}, {"name": " City of Sandy Springs", "location": {"latitude": 33.93667, "longitude": -84.37032}}, {"name": " Beaufort Sea", "location": {"latitude": 69.49968, "longitude": -138.00542}}, {"name": " Northwest Arctic Borough", "location": {"latitude": 66.83333, "longitude": -161.00056}}, {"name": " Blue Earth County", "location": {"latitude": 44.03459, "longitude": -94.06703}}, {"name": " United States", "location": {"latitude": 39.76, "longitude": -98.5}}, {"name": " Blue Earth County", "location": {"latitude": 44.03459, "longitude": -94.06703}}, {"name": " Kil\u00f3metro Veintisiete m\u00e1s 500", "location": {"latitude": 31.68833, "longitude": -116.53611}}, {"name": " Eastern Cape", "location": {"latitude": -32.0, "longitude": 26.0}}, {"name": " Colorado River Indian Reservation", "location": {"latitude": 33.93172, "longitude": -114.38864}}, {"name": " Alabama", "location": {"latitude": 32.75041, "longitude": -86.75026}}, {"name": " Northwest Arctic Borough", "location": {"latitude": 66.83333, "longitude": -161.00056}}, {"name": " South America", "location": {"latitude": -14.60485, "longitude": -57.65625}}, {"name": " Georgia", "location": {"latitude": 41.99998, "longitude": 43.4999}}, {"name": " New Brunswick", "location": {"latitude": 40.48622, "longitude": -74.45182}}, {"name": " Bering Sea", "location": {"latitude": 60.0, "longitude": -175.0}}, {"name": " Northwest Arctic Borough", "location": {"latitude": 66.83333, "longitude": -161.00056}}, {"name": " Town of Bear Creek", "location": {"latitude": 34.2651, "longitude": -87.71641}}, {"name": " Sherwood Content", "location": {"latitude": 18.39116, "longitude": -77.62834}}, {"name": " Grand Duchy of Luxembourg", "location": {"latitude": 49.75, "longitude": 6.16667}}, {"name": " Rocanville No. 151", "location": {"latitude": 50.4167, "longitude": -101.75094}}, {"name": " Blue Earth County", "location": {"latitude": 44.03459, "longitude": -94.06703}}, {"name": " Tokyo", "location": {"latitude": 35.6895, "longitude": 139.69171}}, {"name": " Blue Earth County", "location": {"latitude": 44.03459, "longitude": -94.06703}}, {"name": " Blue Earth County", "location": {"latitude": 44.03459, "longitude": -94.06703}}, {"name": " Administrative Zone 2", "location": {"latitude": 13.68513, "longitude": 40.05615}}, {"name": " South America", "location": {"latitude": -14.60485, "longitude": -57.65625}}, {"name": " Northwest Arctic Borough", "location": {"latitude": 66.83333, "longitude": -161.00056}}, {"name": " Santa Barbara County", "location": {"latitude": 34.53834, "longitude": -120.03078}}, {"name": " San Juan", "location": {"latitude": 18.46633, "longitude": -66.10572}}, {"name": " Northwest Arctic Borough", "location": {"latitude": 66.83333, "longitude": -161.00056}}, {"name": " Mount Stromlo", "location": {"latitude": -35.31616, "longitude": 149.01047}}, {"name": " Nevada", "location": {"latitude": 39.25021, "longitude": -116.75119}}, {"name": " City of Sandy Springs", "location": {"latitude": 33.93667, "longitude": -84.37032}}, {"name": " Sonoma Creek Inn", "location": {"latitude": 38.3138, "longitude": -122.4858}}, {"name": " South America", "location": {"latitude": -14.60485, "longitude": -57.65625}}, {"name": " City of Sandy Springs", "location": {"latitude": 33.93667, "longitude": -84.37032}}, {"name": " Platte River Campground", "location": {"latitude": 39.29388, "longitude": -105.20444}}, {"name": " United States", "location": {"latitude": 39.76, "longitude": -98.5}}, {"name": " Abell Corners", "location": {"latitude": 42.8984, "longitude": -75.82825}}, {"name": " South America", "location": {"latitude": -14.60485, "longitude": -57.65625}}, {"name": " Northwest Arctic Borough", "location": {"latitude": 66.83333, "longitude": -161.00056}}, {"name": " Nevada", "location": {"latitude": 39.25021, "longitude": -116.75119}}, {"name": " Loop", "location": {"latitude": 54.15, "longitude": 9.95}}, {"name": " Loop", "location": {"latitude": 54.15, "longitude": 9.95}}, {"name": " North Carolina", "location": {"latitude": 35.50069, "longitude": -80.00032}}, {"name": " Washington", "location": {"latitude": 47.50012, "longitude": -120.50147}}, {"name": " Emerald No. 277", "location": {"latitude": 51.50005, "longitude": -103.91775}}, {"name": " Washington", "location": {"latitude": 47.50012, "longitude": -120.50147}}, {"name": " California", "location": {"latitude": 37.25022, "longitude": -119.75126}}, {"name": " Northwest Arctic Borough", "location": {"latitude": 66.83333, "longitude": -161.00056}}, {"name": " Mount Stromlo", "location": {"latitude": -35.31616, "longitude": 149.01047}}, {"name": " Wisconsin", "location": {"latitude": 44.50024, "longitude": -90.00041}}, {"name": " South America", "location": {"latitude": -14.60485, "longitude": -57.65625}}, {"name": " Oregon", "location": {"latitude": 44.00013, "longitude": -120.50139}}, {"name": " South America", "location": {"latitude": -14.60485, "longitude": -57.65625}}, {"name": " South America", "location": {"latitude": -14.60485, "longitude": -57.65625}}, {"name": " Washington", "location": {"latitude": 47.50012, "longitude": -120.50147}}, {"name": " Northwest Arctic Borough", "location": {"latitude": 66.83333, "longitude": -161.00056}}, {"name": " City of Sandy Springs", "location": {"latitude": 33.93667, "longitude": -84.37032}}, {"name": " South America", "location": {"latitude": -14.60485, "longitude": -57.65625}}, {"name": " Shanghai", "location": {"latitude": 31.22222, "longitude": 121.45806}}, {"name": " Blue Earth County", "location": {"latitude": 44.03459, "longitude": -94.06703}}, {"name": " Blue Earth County", "location": {"latitude": 44.03459, "longitude": -94.06703}}, {"name": " Arizona", "location": {"latitude": 34.5003, "longitude": -111.50098}}, {"name": " Mount Stromlo", "location": {"latitude": -35.31616, "longitude": 149.01047}}, {"name": " City of Sandy Springs", "location": {"latitude": 33.93667, "longitude": -84.37032}}, {"name": " Gulf of Mexico", "location": {"latitude": 25.0, "longitude": -90.0}}, {"name": " Blue Earth County", "location": {"latitude": 44.03459, "longitude": -94.06703}}, {"name": " Alaska", "location": {"latitude": 64.00028, "longitude": -150.00028}}, {"name": " South America", "location": {"latitude": -14.60485, "longitude": -57.65625}}, {"name": " Geographical Center of North America Monument", "location": {"latitude": 48.35528, "longitude": -99.99958}}, {"name": " Cambridge", "location": {"latitude": -31.93542, "longitude": 115.79887}}, {"name": " Creek County", "location": {"latitude": 35.90268, "longitude": -96.37094}}, {"name": " South America", "location": {"latitude": -14.60485, "longitude": -57.65625}}, {"name": " Trelew", "location": {"latitude": -43.24895, "longitude": -65.30505}}, {"name": " Federative Republic of Brazil", "location": {"latitude": -10.0, "longitude": -55.0}}, {"name": " Madison", "location": {"latitude": 43.07305, "longitude": -89.40123}}, {"name": " South America", "location": {"latitude": -14.60485, "longitude": -57.65625}}, {"name": " Northwest Arctic Borough", "location": {"latitude": 66.83333, "longitude": -161.00056}}, {"name": " Northwest Arctic Borough", "location": {"latitude": 66.83333, "longitude": -161.00056}}, {"name": " Madrid", "location": {"latitude": 40.4165, "longitude": -3.70256}}, {"name": " City of Huntsville", "location": {"latitude": 34.58621, "longitude": -86.80156}}, {"name": " Blue Earth County", "location": {"latitude": 44.03459, "longitude": -94.06703}}, {"name": " Northwest Arctic Borough", "location": {"latitude": 66.83333, "longitude": -161.00056}}, {"name": " Quinta L\u00e9gua", "location": {"latitude": -29.2238, "longitude": -51.1732}}, {"name": " Northwest Arctic Borough", "location": {"latitude": 66.83333, "longitude": -161.00056}}, {"name": " Republic of Haiti", "location": {"latitude": 19.0, "longitude": -72.41667}}, {"name": " Northwest Arctic Borough", "location": {"latitude": 66.83333, "longitude": -161.00056}}, {"name": " Northwest Arctic Borough", "location": {"latitude": 66.83333, "longitude": -161.00056}}, {"name": " Wyoming", "location": {"latitude": 43.00024, "longitude": -107.5009}}, {"name": " Sherwood Content", "location": {"latitude": 18.39116, "longitude": -77.62834}}, {"name": " Blue Earth County", "location": {"latitude": 44.03459, "longitude": -94.06703}}, {"name": " Long Bell State Game Refuge 1N", "location": {"latitude": 41.45183, "longitude": -121.36749}}, {"name": " South America", "location": {"latitude": -14.60485, "longitude": -57.65625}}, {"name": " Huntington Beach", "location": {"latitude": 33.6603, "longitude": -117.99923}}, {"name": " El Portal", "location": {"latitude": 25.85537, "longitude": -80.1931}}, {"name": " Northwest Arctic Borough", "location": {"latitude": 66.83333, "longitude": -161.00056}}, {"name": " Creek County", "location": {"latitude": 35.90268, "longitude": -96.37094}}, {"name": " Loop", "location": {"latitude": 54.15, "longitude": 9.95}}, {"name": " Aicha vorm Wald", "location": {"latitude": 48.68333, "longitude": 13.3}}, {"name": " Northwest Arctic Borough", "location": {"latitude": 66.83333, "longitude": -161.00056}}, {"name": " North Carolina", "location": {"latitude": 35.50069, "longitude": -80.00032}}, {"name": " Blue Earth County", "location": {"latitude": 44.03459, "longitude": -94.06703}}, {"name": " San Juan", "location": {"latitude": 18.46633, "longitude": -66.10572}}, {"name": " DC Ranch", "location": {"latitude": 33.66754, "longitude": -111.86542}}, {"name": " Clear Creek County", "location": {"latitude": 39.6891, "longitude": -105.64436}}, {"name": " Northwest Arctic Borough", "location": {"latitude": 66.83333, "longitude": -161.00056}}, {"name": " Blue Earth County", "location": {"latitude": 44.03459, "longitude": -94.06703}}, {"name": " Northwest Arctic Borough", "location": {"latitude": 66.83333, "longitude": -161.00056}}, {"name": " Loop", "location": {"latitude": 54.15, "longitude": 9.95}}, {"name": " Northwest Arctic Borough", "location": {"latitude": 66.83333, "longitude": -161.00056}}, {"name": " Northwest Arctic Borough", "location": {"latitude": 66.83333, "longitude": -161.00056}}, {"name": " City of Sandy Springs", "location": {"latitude": 33.93667, "longitude": -84.37032}}, {"name": " Colorado", "location": {"latitude": 39.00027, "longitude": -105.50083}}, {"name": " Blue Earth County", "location": {"latitude": 44.03459, "longitude": -94.06703}}, {"name": " Eastern Europe", "location": {"latitude": 51.72703, "longitude": 28.38867}}, {"name": " South America", "location": {"latitude": -14.60485, "longitude": -57.65625}}, {"name": " Santa Catarina", "location": {"latitude": -27.0, "longitude": -50.0}}, {"name": " Northwest Arctic Borough", "location": {"latitude": 66.83333, "longitude": -161.00056}}, {"name": " Buy", "location": {"latitude": 58.48067, "longitude": 41.53699}}, {"name": " San Juan", "location": {"latitude": 18.46633, "longitude": -66.10572}}, {"name": " Blue Earth County", "location": {"latitude": 44.03459, "longitude": -94.06703}}, {"name": " Stranded JP Midget Attack Submarine Type C WW2", "location": {"latitude": 13.42222, "longitude": 144.67551}}, {"name": " Clear Creek County", "location": {"latitude": 39.6891, "longitude": -105.64436}}, {"name": " Blue Crane Route", "location": {"latitude": -32.77816, "longitude": 25.41309}}, {"name": " Islamic Republic of Afghanistan", "location": {"latitude": 33.0, "longitude": 66.0}}, {"name": " Maryland", "location": {"latitude": 39.00039, "longitude": -76.74997}}, {"name": " Edwards Air Force Base", "location": {"latitude": 34.91537, "longitude": -117.89331}}, {"name": " Eastern Europe", "location": {"latitude": 51.72703, "longitude": 28.38867}}, {"name": " South America", "location": {"latitude": -14.60485, "longitude": -57.65625}}, {"name": " South America", "location": {"latitude": -14.60485, "longitude": -57.65625}}, {"name": " Ameralik Span", "location": {"latitude": 64.11271, "longitude": -51.24996}}, {"name": " South America", "location": {"latitude": -14.60485, "longitude": -57.65625}}, {"name": " Utah", "location": {"latitude": 39.25024, "longitude": -111.75103}}, {"name": " Madrid", "location": {"latitude": 40.4165, "longitude": -3.70256}}, {"name": " North and South Anston", "location": {"latitude": 53.35019, "longitude": -1.20677}}, {"name": " Northwest Arctic Borough", "location": {"latitude": 66.83333, "longitude": -161.00056}}, {"name": " Edwards County", "location": {"latitude": 38.41653, "longitude": -88.05327}}, {"name": " Silingyi Gongduan", "location": {"latitude": 28.65077, "longitude": 102.89483}}, {"name": " Mission Viejo", "location": {"latitude": 33.60002, "longitude": -117.672}}, {"name": " City of Sandy Springs", "location": {"latitude": 33.93667, "longitude": -84.37032}}, {"name": " North Atlantic Autonomous Region (RAAN)", "location": {"latitude": 14.0, "longitude": -84.25}}, {"name": " Sector 4", "location": {"latitude": 44.37571, "longitude": 26.12085}}, {"name": " Washington", "location": {"latitude": 47.50012, "longitude": -120.50147}}, {"name": " Lake Harding", "location": {"latitude": 44.98357, "longitude": -94.50867}}, {"name": " Federative Republic of Brazil", "location": {"latitude": -10.0, "longitude": -55.0}}, {"name": " South America", "location": {"latitude": -14.60485, "longitude": -57.65625}}, {"name": " Northwest Arctic Borough", "location": {"latitude": 66.83333, "longitude": -161.00056}}, {"name": " Rocanville No. 151", "location": {"latitude": 50.4167, "longitude": -101.75094}}, {"name": " Northwest Arctic Borough", "location": {"latitude": 66.83333, "longitude": -161.00056}}, {"name": " Dublin", "location": {"latitude": 53.33306, "longitude": -6.24889}}, {"name": " South America", "location": {"latitude": -14.60485, "longitude": -57.65625}}, {"name": " Northwest Arctic Borough", "location": {"latitude": 66.83333, "longitude": -161.00056}}, {"name": " Rocanville No. 151", "location": {"latitude": 50.4167, "longitude": -101.75094}}, {"name": " Transmigrasi Blok C 0 Unit I Lumu", "location": {"latitude": -0.44981, "longitude": 102.65559}}, {"name": " Birmingham", "location": {"latitude": 52.48142, "longitude": -1.89983}}, {"name": " Northwest Arctic Borough", "location": {"latitude": 66.83333, "longitude": -161.00056}}, {"name": " Blue Earth County", "location": {"latitude": 44.03459, "longitude": -94.06703}}, {"name": " South America", "location": {"latitude": -14.60485, "longitude": -57.65625}}, {"name": " Alaska", "location": {"latitude": 64.00028, "longitude": -150.00028}}, {"name": " South America", "location": {"latitude": -14.60485, "longitude": -57.65625}}, {"name": " Georgia", "location": {"latitude": 41.99998, "longitude": 43.4999}}, {"name": " Northwest Arctic Borough", "location": {"latitude": 66.83333, "longitude": -161.00056}}, {"name": " Loop", "location": {"latitude": 54.15, "longitude": 9.95}}, {"name": " South America", "location": {"latitude": -14.60485, "longitude": -57.65625}}, {"name": " Northwest Arctic Borough", "location": {"latitude": 66.83333, "longitude": -161.00056}}, {"name": " Chitato", "location": {"latitude": -7.3, "longitude": 20.73333}}, {"name": " Middle East", "location": {"latitude": 33.13906, "longitude": 35.85869}}, {"name": " Blue Earth County", "location": {"latitude": 44.03459, "longitude": -94.06703}}, {"name": " South America", "location": {"latitude": -14.60485, "longitude": -57.65625}}, {"name": " Town of Pine Island", "location": {"latitude": 30.05537, "longitude": -96.02532}}, {"name": " Mineralnye Vody", "location": {"latitude": 44.21028, "longitude": 43.13528}}, {"name": " Nice", "location": {"latitude": 43.70313, "longitude": 7.26608}}, {"name": " Citt\u00e0 metropolitana di Roma Capitale", "location": {"latitude": 41.96667, "longitude": 12.66667}}, {"name": " South America", "location": {"latitude": -14.60485, "longitude": -57.65625}}, {"name": " Northwest Arctic Borough", "location": {"latitude": 66.83333, "longitude": -161.00056}}, {"name": " Vienna", "location": {"latitude": 48.20849, "longitude": 16.37208}}, {"name": " Northwest Arctic Borough", "location": {"latitude": 66.83333, "longitude": -161.00056}}, {"name": " North Carolina", "location": {"latitude": 35.50069, "longitude": -80.00032}}, {"name": " Salt Lake City", "location": {"latitude": 40.76078, "longitude": -111.89105}}, {"name": " City of Sandy Springs", "location": {"latitude": 33.93667, "longitude": -84.37032}}, {"name": " Quinta L\u00e9gua", "location": {"latitude": -29.2238, "longitude": -51.1732}}, {"name": " Northwest Arctic Borough", "location": {"latitude": 66.83333, "longitude": -161.00056}}, {"name": " Northwest Arctic Borough", "location": {"latitude": 66.83333, "longitude": -161.00056}}, {"name": " San Juan", "location": {"latitude": 18.46633, "longitude": -66.10572}}, {"name": " Federative Republic of Brazil", "location": {"latitude": -10.0, "longitude": -55.0}}, {"name": " El Programa", "location": {"latitude": 19.32694, "longitude": -104.83417}}, {"name": " Varna", "location": {"latitude": 43.21667, "longitude": 27.91667}}, {"name": " Northwest Arctic Borough", "location": {"latitude": 66.83333, "longitude": -161.00056}}, {"name": " Salt Lake City", "location": {"latitude": 40.76078, "longitude": -111.89105}}, {"name": " Shanghai", "location": {"latitude": 31.22222, "longitude": 121.45806}}, {"name": " Northwest Arctic Borough", "location": {"latitude": 66.83333, "longitude": -161.00056}}, {"name": " London", "location": {"latitude": 51.50853, "longitude": -0.12574}}, {"name": " Blue Crane Route", "location": {"latitude": -32.77816, "longitude": 25.41309}}, {"name": " South America", "location": {"latitude": -14.60485, "longitude": -57.65625}}, {"name": " Overland Park", "location": {"latitude": 38.98223, "longitude": -94.67079}}, {"name": " South America", "location": {"latitude": -14.60485, "longitude": -57.65625}}, {"name": " Hemisphere Hotel", "location": {"latitude": -37.93549, "longitude": 145.05073}}, {"name": " Wyoming", "location": {"latitude": 43.00024, "longitude": -107.5009}}, {"name": " South America", "location": {"latitude": -14.60485, "longitude": -57.65625}}, {"name": " Northwest Arctic Borough", "location": {"latitude": 66.83333, "longitude": -161.00056}}, {"name": " South America", "location": {"latitude": -14.60485, "longitude": -57.65625}}, {"name": " North Carolina", "location": {"latitude": 35.50069, "longitude": -80.00032}}, {"name": " Dublin", "location": {"latitude": 53.33306, "longitude": -6.24889}}, {"name": " First Iowa State Fair 1854 Historical Marker", "location": {"latitude": 41.01002, "longitude": -91.96795}}, {"name": " Sherwood Content", "location": {"latitude": 18.39116, "longitude": -77.62834}}, {"name": " Northwest Arctic Borough", "location": {"latitude": 66.83333, "longitude": -161.00056}}, {"name": " Blue Earth County", "location": {"latitude": 44.03459, "longitude": -94.06703}}, {"name": " Blue Earth County", "location": {"latitude": 44.03459, "longitude": -94.06703}}, {"name": " Northwest Arctic Borough", "location": {"latitude": 66.83333, "longitude": -161.00056}}, {"name": " Mount Stromlo", "location": {"latitude": -35.31616, "longitude": 149.01047}}, {"name": " Town of Venus", "location": {"latitude": 32.4308, "longitude": -97.10189}}, {"name": " Texas", "location": {"latitude": 31.25044, "longitude": -99.25061}}, {"name": " Great Lakes", "location": {"latitude": -32.38784, "longitude": 152.11035}}, {"name": " Democratic Republic of the Congo", "location": {"latitude": -2.5, "longitude": 23.5}}, {"name": " Eastern Europe", "location": {"latitude": 51.72703, "longitude": 28.38867}}, {"name": " DC Ranch", "location": {"latitude": 33.66754, "longitude": -111.86542}}, {"name": " Madrid", "location": {"latitude": 40.4165, "longitude": -3.70256}}, {"name": " Loop", "location": {"latitude": 54.15, "longitude": 9.95}}, {"name": " Village of Cedar Creek", "location": {"latitude": 41.04505, "longitude": -96.10161}}, {"name": " Blue Earth County", "location": {"latitude": 44.03459, "longitude": -94.06703}}, {"name": " Right Branch Wests Creek", "location": {"latitude": -38.53333, "longitude": 145.63333}}, {"name": " Blue Earth County", "location": {"latitude": 44.03459, "longitude": -94.06703}}, {"name": " Camden Bay Subdivision", "location": {"latitude": 35.98145, "longitude": -88.04365}}, {"name": " Northwest Arctic Borough", "location": {"latitude": 66.83333, "longitude": -161.00056}}, {"name": " Northwest Arctic Borough", "location": {"latitude": 66.83333, "longitude": -161.00056}}, {"name": " West Florida Regional Medical Center Heliport", "location": {"latitude": 30.5002, "longitude": -87.24969}}, {"name": " Northwest Arctic Borough", "location": {"latitude": 66.83333, "longitude": -161.00056}}, {"name": " Mount Stromlo", "location": {"latitude": -35.31616, "longitude": 149.01047}}, {"name": " Prudhoe Bay", "location": {"latitude": 70.29222, "longitude": -148.66944}}, {"name": " United States", "location": {"latitude": 39.76, "longitude": -98.5}}, {"name": " Oklahoma", "location": {"latitude": 35.49209, "longitude": -97.50328}}, {"name": " Eastern Europe", "location": {"latitude": 51.72703, "longitude": 28.38867}}, {"name": " Reacomodo Nuevo M\u00e9xico (Kil\u00f3metro 59)", "location": {"latitude": 17.26528, "longitude": -93.56889}}, {"name": " Los Angeles", "location": {"latitude": 34.05223, "longitude": -118.24368}}, {"name": " Dublin", "location": {"latitude": 53.33306, "longitude": -6.24889}}, {"name": " South America", "location": {"latitude": -14.60485, "longitude": -57.65625}}, {"name": " Clear Creek County", "location": {"latitude": 39.6891, "longitude": -105.64436}}, {"name": " Nice", "location": {"latitude": 43.70313, "longitude": 7.26608}}, {"name": " South America", "location": {"latitude": -14.60485, "longitude": -57.65625}}, {"name": " Emerald No. 277", "location": {"latitude": 51.50005, "longitude": -103.91775}}, {"name": " Missouri", "location": {"latitude": 38.25031, "longitude": -92.50046}}, {"name": " Silingyi Gongduan", "location": {"latitude": 28.65077, "longitude": 102.89483}}, {"name": " South America", "location": {"latitude": -14.60485, "longitude": -57.65625}}, {"name": " Blue Earth County", "location": {"latitude": 44.03459, "longitude": -94.06703}}, {"name": " Franklin Square", "location": {"latitude": 40.70732, "longitude": -73.67596}}, {"name": " Northwest Arctic Borough", "location": {"latitude": 66.83333, "longitude": -161.00056}}, {"name": " Republic of France", "location": {"latitude": 46.0, "longitude": 2.0}}, {"name": " South America", "location": {"latitude": -14.60485, "longitude": -57.65625}}, {"name": " San Francisco Bay Area", "location": {"latitude": 37.77239, "longitude": -122.42349}}, {"name": " Tokyo", "location": {"latitude": 35.6895, "longitude": 139.69171}}, {"name": " North Atlantic Autonomous Region (RAAN)", "location": {"latitude": 14.0, "longitude": -84.25}}, {"name": " Silingyi Gongduan", "location": {"latitude": 28.65077, "longitude": 102.89483}}, {"name": " Michigan", "location": {"latitude": 44.25029, "longitude": -85.50033}}, {"name": " South America", "location": {"latitude": -14.60485, "longitude": -57.65625}}, {"name": " Florida", "location": {"latitude": 28.75054, "longitude": -82.5001}}, {"name": " Loop", "location": {"latitude": 54.15, "longitude": 9.95}}, {"name": " South America", "location": {"latitude": -14.60485, "longitude": -57.65625}}, {"name": " City of Quincy", "location": {"latitude": 42.26216, "longitude": -71.00723}}, {"name": " City of Sandy Springs", "location": {"latitude": 33.93667, "longitude": -84.37032}}, {"name": " Northwest Arctic Borough", "location": {"latitude": 66.83333, "longitude": -161.00056}}, {"name": " Blue Earth County", "location": {"latitude": 44.03459, "longitude": -94.06703}}, {"name": " Washington", "location": {"latitude": 47.50012, "longitude": -120.50147}}, {"name": " Loop", "location": {"latitude": 54.15, "longitude": 9.95}}, {"name": " Northwest Arctic Borough", "location": {"latitude": 66.83333, "longitude": -161.00056}}, {"name": " Boston Harbor", "location": {"latitude": 47.13843, "longitude": -122.90097}}, {"name": " United States", "location": {"latitude": 39.76, "longitude": -98.5}}, {"name": " South America", "location": {"latitude": -14.60485, "longitude": -57.65625}}, {"name": " South America", "location": {"latitude": -14.60485, "longitude": -57.65625}}, {"name": " Northwest Arctic Borough", "location": {"latitude": 66.83333, "longitude": -161.00056}}, {"name": " Northwest Arctic Borough", "location": {"latitude": 66.83333, "longitude": -161.00056}}, {"name": " Northwest Arctic Borough", "location": {"latitude": 66.83333, "longitude": -161.00056}}, {"name": " South America", "location": {"latitude": -14.60485, "longitude": -57.65625}}, {"name": " Northwest Arctic Borough", "location": {"latitude": 66.83333, "longitude": -161.00056}}, {"name": " DC Ranch", "location": {"latitude": 33.66754, "longitude": -111.86542}}, {"name": " Lateral M-5", "location": {"latitude": 42.74581, "longitude": -114.51366}}, {"name": " Platte River Campground", "location": {"latitude": 39.29388, "longitude": -105.20444}}, {"name": " Colorado", "location": {"latitude": 39.00027, "longitude": -105.50083}}, {"name": " Sherwood Content", "location": {"latitude": 18.39116, "longitude": -77.62834}}, {"name": " Village of Grand River", "location": {"latitude": 41.74181, "longitude": -81.28463}}, {"name": " Northwest Arctic Borough", "location": {"latitude": 66.83333, "longitude": -161.00056}}, {"name": " Clear Creek County", "location": {"latitude": 39.6891, "longitude": -105.64436}}, {"name": " South America", "location": {"latitude": -14.60485, "longitude": -57.65625}}, {"name": " San Joaquin Valley National Cemetery", "location": {"latitude": 37.11485, "longitude": -121.07648}}, {"name": " Eastern Europe", "location": {"latitude": 51.72703, "longitude": 28.38867}}, {"name": " Northwest Arctic Borough", "location": {"latitude": 66.83333, "longitude": -161.00056}}, {"name": " Paris", "location": {"latitude": 48.85341, "longitude": 2.3488}}, {"name": " Sierra Nevada", "location": {"latitude": 37.095, "longitude": -3.3969}}, {"name": " People\u2019s Republic of China", "location": {"latitude": 35.0, "longitude": 105.0}}, {"name": " South America", "location": {"latitude": -14.60485, "longitude": -57.65625}}, {"name": " Tibet Autonomous Region", "location": {"latitude": 31.66667, "longitude": 88.0}}, {"name": " South America", "location": {"latitude": -14.60485, "longitude": -57.65625}}, {"name": " Washington", "location": {"latitude": 47.50012, "longitude": -120.50147}}, {"name": " Northwest Arctic Borough", "location": {"latitude": 66.83333, "longitude": -161.00056}}, {"name": " Blue Earth County", "location": {"latitude": 44.03459, "longitude": -94.06703}}, {"name": " San Juan", "location": {"latitude": 18.46633, "longitude": -66.10572}}, {"name": " City of University Place", "location": {"latitude": 47.21484, "longitude": -122.54608}}, {"name": " Transmigrasi Blok C 0 Unit I Lumu", "location": {"latitude": -0.44981, "longitude": 102.65559}}, {"name": " Avon Park", "location": {"latitude": 27.59587, "longitude": -81.50619}}, {"name": " City of Sandy Springs", "location": {"latitude": 33.93667, "longitude": -84.37032}}, {"name": " South America", "location": {"latitude": -14.60485, "longitude": -57.65625}}, {"name": " Blue Earth County", "location": {"latitude": 44.03459, "longitude": -94.06703}}, {"name": " South America", "location": {"latitude": -14.60485, "longitude": -57.65625}}, {"name": " Loop", "location": {"latitude": 54.15, "longitude": 9.95}}, {"name": " City of Sandy Springs", "location": {"latitude": 33.93667, "longitude": -84.37032}}, {"name": " Lakes", "location": {"latitude": 6.75, "longitude": 30.0}}, {"name": " Orange County", "location": {"latitude": 33.67691, "longitude": -117.77617}}, {"name": " Blue Earth County", "location": {"latitude": 44.03459, "longitude": -94.06703}}, {"name": " City of Sandy Springs", "location": {"latitude": 33.93667, "longitude": -84.37032}}, {"name": " DC Ranch", "location": {"latitude": 33.66754, "longitude": -111.86542}}, {"name": " South America", "location": {"latitude": -14.60485, "longitude": -57.65625}}, {"name": " Yinchuan", "location": {"latitude": 38.46806, "longitude": 106.27306}}, {"name": " South America", "location": {"latitude": -14.60485, "longitude": -57.65625}}, {"name": " Perosa Argentina", "location": {"latitude": 44.95744, "longitude": 7.19091}}, {"name": " Northwest Arctic Borough", "location": {"latitude": 66.83333, "longitude": -161.00056}}, {"name": " Northwest Arctic Borough", "location": {"latitude": 66.83333, "longitude": -161.00056}}, {"name": " City of Sandy Springs", "location": {"latitude": 33.93667, "longitude": -84.37032}}, {"name": " Amazon", "location": {"latitude": 7.89421, "longitude": 1.86057}}, {"name": " Blue Earth County", "location": {"latitude": 44.03459, "longitude": -94.06703}}, {"name": " South America", "location": {"latitude": -14.60485, "longitude": -57.65625}}, {"name": " South America", "location": {"latitude": -14.60485, "longitude": -57.65625}}, {"name": " Eastern Europe", "location": {"latitude": 51.72703, "longitude": 28.38867}}, {"name": " Northwest Arctic Borough", "location": {"latitude": 66.83333, "longitude": -161.00056}}, {"name": " Northwest Arctic Borough", "location": {"latitude": 66.83333, "longitude": -161.00056}}, {"name": " Iowa", "location": {"latitude": 42.00027, "longitude": -93.50049}}, {"name": " Atqasuk Edward Burnell Sr. Memorial Airport", "location": {"latitude": 70.46802, "longitude": -157.43134}}, {"name": " Loop", "location": {"latitude": 54.15, "longitude": 9.95}}, {"name": " Blue Earth County", "location": {"latitude": 44.03459, "longitude": -94.06703}}, {"name": " Northwest Arctic Borough", "location": {"latitude": 66.83333, "longitude": -161.00056}}, {"name": " Dominican Republic", "location": {"latitude": 19.0, "longitude": -70.66667}}, {"name": " New Hampshire", "location": {"latitude": 43.66702, "longitude": -71.4998}}, {"name": " Florida", "location": {"latitude": 28.75054, "longitude": -82.5001}}, {"name": " South America", "location": {"latitude": -14.60485, "longitude": -57.65625}}, {"name": " Reacomodo Nuevo M\u00e9xico (Kil\u00f3metro 59)", "location": {"latitude": 17.26528, "longitude": -93.56889}}, {"name": " Yellowstone County", "location": {"latitude": 45.93725, "longitude": -108.27435}}, {"name": " City of Le Mars", "location": {"latitude": 42.78102, "longitude": -96.17418}}, {"name": " City of Sandy Springs", "location": {"latitude": 33.93667, "longitude": -84.37032}}, {"name": " 2nd Leg Glass Breakwater - USN built WW2", "location": {"latitude": 13.45826, "longitude": 144.62851}}, {"name": " South America", "location": {"latitude": -14.60485, "longitude": -57.65625}}, {"name": " Mexico", "location": {"latitude": 23.0, "longitude": -102.0}}, {"name": " Scott No. 98", "location": {"latitude": 49.91676, "longitude": -104.25111}}, {"name": " Northwest Arctic Borough", "location": {"latitude": 66.83333, "longitude": -161.00056}}, {"name": " Great Basin National Park", "location": {"latitude": 38.9461, "longitude": -114.25797}}, {"name": " United Kingdom of Great Britain and Northern Ireland", "location": {"latitude": 54.75844, "longitude": -2.69531}}, {"name": " Blue Earth County", "location": {"latitude": 44.03459, "longitude": -94.06703}}, {"name": " United States", "location": {"latitude": 39.76, "longitude": -98.5}}, {"name": " South America", "location": {"latitude": -14.60485, "longitude": -57.65625}}, {"name": " Mexico", "location": {"latitude": 23.0, "longitude": -102.0}}, {"name": " Blue Earth County", "location": {"latitude": 44.03459, "longitude": -94.06703}}, {"name": " Lakes", "location": {"latitude": 6.75, "longitude": 30.0}}, {"name": " United States", "location": {"latitude": 39.76, "longitude": -98.5}}, {"name": " Beijing", "location": {"latitude": 39.9075, "longitude": 116.39723}}, {"name": " Alabama", "location": {"latitude": 32.75041, "longitude": -86.75026}}, {"name": " Green River", "location": {"latitude": 41.52858, "longitude": -109.46625}}, {"name": " Salt Lake City", "location": {"latitude": 40.76078, "longitude": -111.89105}}, {"name": " Eastern Europe", "location": {"latitude": 51.72703, "longitude": 28.38867}}, {"name": " Northwest Arctic Borough", "location": {"latitude": 66.83333, "longitude": -161.00056}}, {"name": " South America", "location": {"latitude": -14.60485, "longitude": -57.65625}}, {"name": " Central Oklahoma Community Mental Health", "location": {"latitude": 35.21904, "longitude": -97.42776}}, {"name": " South America", "location": {"latitude": -14.60485, "longitude": -57.65625}}, {"name": " Woods County", "location": {"latitude": 36.76694, "longitude": -98.86512}}, {"name": " Blue Earth County", "location": {"latitude": 44.03459, "longitude": -94.06703}}, {"name": " Mount Stromlo", "location": {"latitude": -35.31616, "longitude": 149.01047}}, {"name": " Northwest Arctic Borough", "location": {"latitude": 66.83333, "longitude": -161.00056}}, {"name": " Mount Stromlo", "location": {"latitude": -35.31616, "longitude": 149.01047}}, {"name": " Mission Viejo", "location": {"latitude": 33.60002, "longitude": -117.672}}, {"name": " South America", "location": {"latitude": -14.60485, "longitude": -57.65625}}, {"name": " South America", "location": {"latitude": -14.60485, "longitude": -57.65625}}, {"name": " San Juan", "location": {"latitude": 18.46633, "longitude": -66.10572}}, {"name": " Eastern Europe", "location": {"latitude": 51.72703, "longitude": 28.38867}}, {"name": " City of Oak Grove", "location": {"latitude": 45.34065, "longitude": -93.32639}}, {"name": " Lower Saxony", "location": {"latitude": 52.83333, "longitude": 9.16667}}, {"name": " Dublin", "location": {"latitude": 53.33306, "longitude": -6.24889}}, {"name": " Georgia", "location": {"latitude": 41.99998, "longitude": 43.4999}}, {"name": " Loop", "location": {"latitude": 54.15, "longitude": 9.95}}, {"name": " Northwest Arctic Borough", "location": {"latitude": 66.83333, "longitude": -161.00056}}, {"name": " Blue Earth County", "location": {"latitude": 44.03459, "longitude": -94.06703}}, {"name": " Loop", "location": {"latitude": 54.15, "longitude": 9.95}}, {"name": " Santa Barbara County", "location": {"latitude": 34.53834, "longitude": -120.03078}}, {"name": " San Juan", "location": {"latitude": 18.46633, "longitude": -66.10572}}, {"name": " River Nile", "location": {"latitude": 19.0, "longitude": 33.2}}, {"name": " Madrid", "location": {"latitude": 40.4165, "longitude": -3.70256}}, {"name": " Northwest Arctic Borough", "location": {"latitude": 66.83333, "longitude": -161.00056}}, {"name": " City of Sandy Springs", "location": {"latitude": 33.93667, "longitude": -84.37032}}, {"name": " Atlantic Coast Medical Transport", "location": {"latitude": 33.90747, "longitude": -78.84017}}, {"name": " Blue Earth County", "location": {"latitude": 44.03459, "longitude": -94.06703}}, {"name": " South America", "location": {"latitude": -14.60485, "longitude": -57.65625}}, {"name": " Blue Earth County", "location": {"latitude": 44.03459, "longitude": -94.06703}}, {"name": " Stranded JP Midget Attack Submarine Type C WW2", "location": {"latitude": 13.42222, "longitude": 144.67551}}, {"name": " South America", "location": {"latitude": -14.60485, "longitude": -57.65625}}, {"name": " San Joaquin River Estates", "location": {"latitude": 36.86384, "longitude": -119.81709}}, {"name": " City of Le Mars", "location": {"latitude": 42.78102, "longitude": -96.17418}}, {"name": " Delaware", "location": {"latitude": 39.00039, "longitude": -75.49992}}, {"name": " Cass\u00e0 de la Selva", "location": {"latitude": 41.87915, "longitude": 2.87232}}, {"name": " Denver", "location": {"latitude": 39.73915, "longitude": -104.9847}}, {"name": " South America", "location": {"latitude": -14.60485, "longitude": -57.65625}}, {"name": " Blue Earth County", "location": {"latitude": 44.03459, "longitude": -94.06703}}, {"name": " Lovell", "location": {"latitude": 44.83745, "longitude": -108.38956}}, {"name": " Central African Republic", "location": {"latitude": 7.0, "longitude": 21.0}}, {"name": " Hodh ech Chargui", "location": {"latitude": 18.88333, "longitude": -7.0}}, {"name": " Key West", "location": {"latitude": 24.55524, "longitude": -81.78163}}, {"name": " South America", "location": {"latitude": -14.60485, "longitude": -57.65625}}, {"name": " Blue Earth County", "location": {"latitude": 44.03459, "longitude": -94.06703}}, {"name": " Northwest Arctic Borough", "location": {"latitude": 66.83333, "longitude": -161.00056}}, {"name": " Loop", "location": {"latitude": 54.15, "longitude": 9.95}}, {"name": " Commonwealth of Australia", "location": {"latitude": -25.0, "longitude": 135.0}}, {"name": " Nash County", "location": {"latitude": 35.96722, "longitude": -77.98648}}, {"name": " Northwest Arctic Borough", "location": {"latitude": 66.83333, "longitude": -161.00056}}, {"name": " Georgia", "location": {"latitude": 41.99998, "longitude": 43.4999}}, {"name": " Mount Stromlo", "location": {"latitude": -35.31616, "longitude": 149.01047}}, {"name": " Northwest Arctic Borough", "location": {"latitude": 66.83333, "longitude": -161.00056}}, {"name": " Washington", "location": {"latitude": 47.50012, "longitude": -120.50147}}, {"name": " Northwest Arctic Borough", "location": {"latitude": 66.83333, "longitude": -161.00056}}, {"name": " South America", "location": {"latitude": -14.60485, "longitude": -57.65625}}, {"name": " Print", "location": {"latitude": 18.5, "longitude": -74.05}}, {"name": " City of University Place", "location": {"latitude": 47.21484, "longitude": -122.54608}}, {"name": " Federal Republic of Germany", "location": {"latitude": 51.5, "longitude": 10.5}}, {"name": " Northwest Arctic Borough", "location": {"latitude": 66.83333, "longitude": -161.00056}}, {"name": " United States", "location": {"latitude": 39.76, "longitude": -98.5}}, {"name": " Silingyi Gongduan", "location": {"latitude": 28.65077, "longitude": 102.89483}}, {"name": " South Pole", "location": {"latitude": -90.0, "longitude": 0.0}}, {"name": " Colorado", "location": {"latitude": 39.00027, "longitude": -105.50083}}, {"name": " Stranded JP Midget Attack Submarine Type C WW2", "location": {"latitude": 13.42222, "longitude": 144.67551}}, {"name": " Kenai Peninsula Borough", "location": {"latitude": 60.41667, "longitude": -151.25056}}, {"name": " Loop", "location": {"latitude": 54.15, "longitude": 9.95}}, {"name": " Northwest Arctic Borough", "location": {"latitude": 66.83333, "longitude": -161.00056}}, {"name": " California", "location": {"latitude": 37.25022, "longitude": -119.75126}}, {"name": " City of Sandy Springs", "location": {"latitude": 33.93667, "longitude": -84.37032}}, {"name": " Commonwealth of Australia", "location": {"latitude": -25.0, "longitude": 135.0}}, {"name": " Northwest Arctic Borough", "location": {"latitude": 66.83333, "longitude": -161.00056}}, {"name": " Mount Stromlo", "location": {"latitude": -35.31616, "longitude": 149.01047}}, {"name": " Blue Earth County", "location": {"latitude": 44.03459, "longitude": -94.06703}}, {"name": " Emerald No. 277", "location": {"latitude": 51.50005, "longitude": -103.91775}}, {"name": " South America", "location": {"latitude": -14.60485, "longitude": -57.65625}}, {"name": " Blue Earth County", "location": {"latitude": 44.03459, "longitude": -94.06703}}, {"name": " City of Sandy Springs", "location": {"latitude": 33.93667, "longitude": -84.37032}}, {"name": " Central Asia", "location": {"latitude": 43.00465, "longitude": 71.71875}}, {"name": " South America", "location": {"latitude": -14.60485, "longitude": -57.65625}}, {"name": " Blue Earth County", "location": {"latitude": 44.03459, "longitude": -94.06703}}, {"name": " San Juan", "location": {"latitude": 18.46633, "longitude": -66.10572}}, {"name": " Northwest Arctic Borough", "location": {"latitude": 66.83333, "longitude": -161.00056}}, {"name": " Vienna", "location": {"latitude": 48.20849, "longitude": 16.37208}}, {"name": " Pasadena", "location": {"latitude": 29.69106, "longitude": -95.2091}}, {"name": " California", "location": {"latitude": 37.25022, "longitude": -119.75126}}, {"name": " South America", "location": {"latitude": -14.60485, "longitude": -57.65625}}, {"name": " Washington", "location": {"latitude": 47.50012, "longitude": -120.50147}}, {"name": " Northwest Arctic Borough", "location": {"latitude": 66.83333, "longitude": -161.00056}}, {"name": " Banner County", "location": {"latitude": 41.54597, "longitude": -103.71048}}, {"name": " Northwest Arctic Borough", "location": {"latitude": 66.83333, "longitude": -161.00056}}, {"name": " Minnesota", "location": {"latitude": 46.25024, "longitude": -94.25055}}, {"name": " Northwest Arctic Borough", "location": {"latitude": 66.83333, "longitude": -161.00056}}, {"name": " San Juan", "location": {"latitude": 18.46633, "longitude": -66.10572}}, {"name": " Loop", "location": {"latitude": 54.15, "longitude": 9.95}}, {"name": " South America", "location": {"latitude": -14.60485, "longitude": -57.65625}}, {"name": " Northwest Arctic Borough", "location": {"latitude": 66.83333, "longitude": -161.00056}}, {"name": " Northwest Arctic Borough", "location": {"latitude": 66.83333, "longitude": -161.00056}}, {"name": " Grand Skylight Tianjin (Sup Suite King)", "location": {"latitude": 39.15529, "longitude": 117.38245}}, {"name": " South America", "location": {"latitude": -14.60485, "longitude": -57.65625}}, {"name": " Loop", "location": {"latitude": 54.15, "longitude": 9.95}}, {"name": " Array Operations Center Building", "location": {"latitude": 34.06618, "longitude": -106.90669}}, {"name": " Hudson County", "location": {"latitude": 40.73094, "longitude": -74.07594}}, {"name": " Quinta L\u00e9gua", "location": {"latitude": -29.2238, "longitude": -51.1732}}, {"name": " Northwest Arctic Borough", "location": {"latitude": 66.83333, "longitude": -161.00056}}, {"name": " South America", "location": {"latitude": -14.60485, "longitude": -57.65625}}, {"name": " \u1ea4p H M\u1ed9t", "location": {"latitude": 10.20696, "longitude": 105.35318}}, {"name": " Switzerland", "location": {"latitude": 47.00016, "longitude": 8.01427}}, {"name": " Ohio", "location": {"latitude": 40.25034, "longitude": -83.00018}}, {"name": " Victoria", "location": {"latitude": 48.43294, "longitude": -123.3693}}, {"name": " Northwest Arctic Borough", "location": {"latitude": 66.83333, "longitude": -161.00056}}, {"name": " Northwest Arctic Borough", "location": {"latitude": 66.83333, "longitude": -161.00056}}, {"name": " South America", "location": {"latitude": -14.60485, "longitude": -57.65625}}, {"name": " South America", "location": {"latitude": -14.60485, "longitude": -57.65625}}, {"name": " New York", "location": {"latitude": 43.00035, "longitude": -75.4999}}, {"name": " Northwest Arctic Borough", "location": {"latitude": 66.83333, "longitude": -161.00056}}, {"name": " Tokyo", "location": {"latitude": 35.6895, "longitude": 139.69171}}, {"name": " City of Sandy Springs", "location": {"latitude": 33.93667, "longitude": -84.37032}}, {"name": " City of Sandy Springs", "location": {"latitude": 33.93667, "longitude": -84.37032}}, {"name": " City of Sandy Springs", "location": {"latitude": 33.93667, "longitude": -84.37032}}, {"name": " South America", "location": {"latitude": -14.60485, "longitude": -57.65625}}, {"name": " South America", "location": {"latitude": -14.60485, "longitude": -57.65625}}, {"name": " City of Greensboro", "location": {"latitude": 36.09596, "longitude": -79.8273}}, {"name": " Florida", "location": {"latitude": 28.75054, "longitude": -82.5001}}, {"name": " Blue Earth County", "location": {"latitude": 44.03459, "longitude": -94.06703}}, {"name": " Mission Viejo", "location": {"latitude": 33.60002, "longitude": -117.672}}, {"name": " Northwest Arctic Borough", "location": {"latitude": 66.83333, "longitude": -161.00056}}, {"name": " Township of Spring River", "location": {"latitude": 36.19347, "longitude": -91.30328}}, {"name": " Blue Earth County", "location": {"latitude": 44.03459, "longitude": -94.06703}}, {"name": " Loop", "location": {"latitude": 54.15, "longitude": 9.95}}, {"name": " Northwest Arctic Borough", "location": {"latitude": 66.83333, "longitude": -161.00056}}, {"name": " United States", "location": {"latitude": 39.76, "longitude": -98.5}}, {"name": " Ostanovochnyy Punkt 355 km", "location": {"latitude": 53.0297, "longitude": 38.2145}}, {"name": " South America", "location": {"latitude": -14.60485, "longitude": -57.65625}}, {"name": " California", "location": {"latitude": 37.25022, "longitude": -119.75126}}, {"name": " Washington", "location": {"latitude": 47.50012, "longitude": -120.50147}}, {"name": " Franklin Square", "location": {"latitude": 40.70732, "longitude": -73.67596}}, {"name": " Loop", "location": {"latitude": 54.15, "longitude": 9.95}}, {"name": " Blue Earth County", "location": {"latitude": 44.03459, "longitude": -94.06703}}, {"name": " South America", "location": {"latitude": -14.60485, "longitude": -57.65625}}, {"name": " Oklahoma", "location": {"latitude": 35.49209, "longitude": -97.50328}}, {"name": " New York", "location": {"latitude": 43.00035, "longitude": -75.4999}}, {"name": " Shanghai", "location": {"latitude": 31.22222, "longitude": 121.45806}}, {"name": " South America", "location": {"latitude": -14.60485, "longitude": -57.65625}}, {"name": " DC Ranch", "location": {"latitude": 33.66754, "longitude": -111.86542}}, {"name": " City of University Place", "location": {"latitude": 47.21484, "longitude": -122.54608}}, {"name": " Eastern Europe", "location": {"latitude": 51.72703, "longitude": 28.38867}}, {"name": " Blue Earth County", "location": {"latitude": 44.03459, "longitude": -94.06703}}, {"name": " Mississippi Valley Welcome Center", "location": {"latitude": 41.5867, "longitude": -90.36457}}, {"name": " Atlantic County", "location": {"latitude": 39.46883, "longitude": -74.63373}}, {"name": " Trelew", "location": {"latitude": -43.24895, "longitude": -65.30505}}, {"name": " Dominican Republic", "location": {"latitude": 19.0, "longitude": -70.66667}}, {"name": " Eastern Europe", "location": {"latitude": 51.72703, "longitude": 28.38867}}, {"name": " Northwest Arctic Borough", "location": {"latitude": 66.83333, "longitude": -161.00056}}, {"name": " South America", "location": {"latitude": -14.60485, "longitude": -57.65625}}, {"name": " United States", "location": {"latitude": 39.76, "longitude": -98.5}}, {"name": " Rocanville No. 151", "location": {"latitude": 50.4167, "longitude": -101.75094}}, {"name": " City of Sandy Springs", "location": {"latitude": 33.93667, "longitude": -84.37032}}, {"name": " Toronto", "location": {"latitude": 43.70011, "longitude": -79.4163}}, {"name": " Teoponte Soft Surface 429", "location": {"latitude": -15.49612, "longitude": -67.81813}}, {"name": " Quinta L\u00e9gua", "location": {"latitude": -29.2238, "longitude": -51.1732}}, {"name": " Northwest Arctic Borough", "location": {"latitude": 66.83333, "longitude": -161.00056}}, {"name": " Alabama", "location": {"latitude": 32.75041, "longitude": -86.75026}}, {"name": " Northwest Arctic Borough", "location": {"latitude": 66.83333, "longitude": -161.00056}}, {"name": " South America", "location": {"latitude": -14.60485, "longitude": -57.65625}}, {"name": " Channel Islands", "location": {"latitude": 49.3466, "longitude": -2.36206}}, {"name": " Northwest Arctic Borough", "location": {"latitude": 66.83333, "longitude": -161.00056}}, {"name": " South America", "location": {"latitude": -14.60485, "longitude": -57.65625}}, {"name": " DC Ranch", "location": {"latitude": 33.66754, "longitude": -111.86542}}, {"name": " Town of Venus", "location": {"latitude": 32.4308, "longitude": -97.10189}}, {"name": " Loop", "location": {"latitude": 54.15, "longitude": 9.95}}, {"name": " Clear Creek County", "location": {"latitude": 39.6891, "longitude": -105.64436}}, {"name": " Galveston County", "location": {"latitude": 29.37997, "longitude": -94.86267}}, {"name": " Alaska", "location": {"latitude": 64.00028, "longitude": -150.00028}}, {"name": " Georgia", "location": {"latitude": 41.99998, "longitude": 43.4999}}, {"name": " Chinas Best Value Inn Dongfang Road", "location": {"latitude": 31.21076, "longitude": 121.52789}}, {"name": " Emerald No. 277", "location": {"latitude": 51.50005, "longitude": -103.91775}}, {"name": " Dubai", "location": {"latitude": 25.0657, "longitude": 55.17128}}, {"name": " Dubai", "location": {"latitude": 25.0657, "longitude": 55.17128}}, {"name": " San Luis Potos\u00ed", "location": {"latitude": 22.14982, "longitude": -100.97916}}, {"name": " West Bengal", "location": {"latitude": 24.0, "longitude": 88.0}}, {"name": " Mount Stromlo", "location": {"latitude": -35.31616, "longitude": 149.01047}}, {"name": " Northwest Arctic Borough", "location": {"latitude": 66.83333, "longitude": -161.00056}}, {"name": " Irish Omerbane", "location": {"latitude": 55.0, "longitude": -6.28333}}, {"name": " Northwest Arctic Borough", "location": {"latitude": 66.83333, "longitude": -161.00056}}, {"name": " Wisconsin", "location": {"latitude": 44.50024, "longitude": -90.00041}}, {"name": " Chukchi Sea", "location": {"latitude": 68.2025, "longitude": -167.55222}}, {"name": " Blue Earth County", "location": {"latitude": 44.03459, "longitude": -94.06703}}, {"name": " Pennsylvania", "location": {"latitude": 40.27245, "longitude": -76.90567}}, {"name": " Emerald No. 277", "location": {"latitude": 51.50005, "longitude": -103.91775}}, {"name": " Regi\u00f3n Metropolitana de Santiago", "location": {"latitude": -33.47269, "longitude": -70.64724}}, {"name": " Ariel", "location": {"latitude": 32.1065, "longitude": 35.18449}}, {"name": " Ocean County", "location": {"latitude": 39.866, "longitude": -74.25003}}, {"name": " West Virginia", "location": {"latitude": 38.50038, "longitude": -80.50009}}, {"name": " Northwest Arctic Borough", "location": {"latitude": 66.83333, "longitude": -161.00056}}, {"name": " Clear Creek County", "location": {"latitude": 39.6891, "longitude": -105.64436}}, {"name": " Northwest Arctic Borough", "location": {"latitude": 66.83333, "longitude": -161.00056}}, {"name": " South America", "location": {"latitude": -14.60485, "longitude": -57.65625}}, {"name": " Blue Earth County", "location": {"latitude": 44.03459, "longitude": -94.06703}}, {"name": " Blue Earth County", "location": {"latitude": 44.03459, "longitude": -94.06703}}, {"name": " Loop", "location": {"latitude": 54.15, "longitude": 9.95}}, {"name": " Ocean County", "location": {"latitude": 39.866, "longitude": -74.25003}}, {"name": " United States", "location": {"latitude": 39.76, "longitude": -98.5}}, {"name": " City of Le Mars", "location": {"latitude": 42.78102, "longitude": -96.17418}}, {"name": " Northwest Arctic Borough", "location": {"latitude": 66.83333, "longitude": -161.00056}}, {"name": " Republic of Iraq", "location": {"latitude": 33.0, "longitude": 44.0}}, {"name": " Eastern Europe", "location": {"latitude": 51.72703, "longitude": 28.38867}}, {"name": " Washington", "location": {"latitude": 47.50012, "longitude": -120.50147}}, {"name": " Amazon", "location": {"latitude": 7.89421, "longitude": 1.86057}}, {"name": " Hodh ech Chargui", "location": {"latitude": 18.88333, "longitude": -7.0}}, {"name": " Hawaii", "location": {"latitude": 20.75028, "longitude": -156.50028}}, {"name": " Eastern Europe", "location": {"latitude": 51.72703, "longitude": 28.38867}}, {"name": " City of Chesapeake", "location": {"latitude": 36.68765, "longitude": -76.31216}}, {"name": " Georgia", "location": {"latitude": 41.99998, "longitude": 43.4999}}, {"name": " Menlo Park", "location": {"latitude": 37.45383, "longitude": -122.18219}}, {"name": " Northwest Arctic Borough", "location": {"latitude": 66.83333, "longitude": -161.00056}}, {"name": " Destiny Church", "location": {"latitude": 42.03197, "longitude": -88.09063}}, {"name": " Russian Federation", "location": {"latitude": 60.0, "longitude": 100.0}}, {"name": " Mission Viejo", "location": {"latitude": 33.60002, "longitude": -117.672}}, {"name": " Barrow County", "location": {"latitude": 33.9932, "longitude": -83.71276}}, {"name": " Woodward County", "location": {"latitude": 36.42267, "longitude": -99.26497}}, {"name": " City of Sandy Springs", "location": {"latitude": 33.93667, "longitude": -84.37032}}, {"name": " Healy Lake", "location": {"latitude": 64.00411, "longitude": -144.7023}}, {"name": " Las Mercedes Kil\u00f3metro 51", "location": {"latitude": 17.31694, "longitude": -93.56333}}, {"name": " Northwest Arctic Borough", "location": {"latitude": 66.83333, "longitude": -161.00056}}, {"name": " South Carolina", "location": {"latitude": 34.00043, "longitude": -81.00009}}, {"name": " Alaska", "location": {"latitude": 64.00028, "longitude": -150.00028}}, {"name": " Colorado", "location": {"latitude": 39.00027, "longitude": -105.50083}}, {"name": " Los Angeles", "location": {"latitude": 34.05223, "longitude": -118.24368}}, {"name": " Loop", "location": {"latitude": 54.15, "longitude": 9.95}}, {"name": " Harriman", "location": {"latitude": 41.30843, "longitude": -74.14459}}, {"name": " Blue Earth County", "location": {"latitude": 44.03459, "longitude": -94.06703}}, {"name": " New York", "location": {"latitude": 43.00035, "longitude": -75.4999}}, {"name": " City of Sandy Springs", "location": {"latitude": 33.93667, "longitude": -84.37032}}, {"name": " South America", "location": {"latitude": -14.60485, "longitude": -57.65625}}, {"name": " Blue Earth County", "location": {"latitude": 44.03459, "longitude": -94.06703}}, {"name": " Santa Barbara County", "location": {"latitude": 34.53834, "longitude": -120.03078}}, {"name": " Maine", "location": {"latitude": 45.50032, "longitude": -69.24977}}, {"name": " Some", "location": {"latitude": 5.87369, "longitude": 0.22223}}, {"name": " Hawaii", "location": {"latitude": 20.75028, "longitude": -156.50028}}, {"name": " Northwest Arctic Borough", "location": {"latitude": 66.83333, "longitude": -161.00056}}, {"name": " Los Angeles", "location": {"latitude": 34.05223, "longitude": -118.24368}}, {"name": " Mission Viejo", "location": {"latitude": 33.60002, "longitude": -117.672}}, {"name": " Scott No. 98", "location": {"latitude": 49.91676, "longitude": -104.25111}}, {"name": " Maine", "location": {"latitude": 45.50032, "longitude": -69.24977}}, {"name": " South Carolina", "location": {"latitude": 34.00043, "longitude": -81.00009}}, {"name": " South America", "location": {"latitude": -14.60485, "longitude": -57.65625}}, {"name": " Loop", "location": {"latitude": 54.15, "longitude": 9.95}}, {"name": " San Juan", "location": {"latitude": 18.46633, "longitude": -66.10572}}, {"name": " City of Oak Grove", "location": {"latitude": 45.34065, "longitude": -93.32639}}, {"name": " Northwest Arctic Borough", "location": {"latitude": 66.83333, "longitude": -161.00056}}, {"name": " Northwest Arctic Borough", "location": {"latitude": 66.83333, "longitude": -161.00056}}, {"name": " Rocanville No. 151", "location": {"latitude": 50.4167, "longitude": -101.75094}}, {"name": " Bering Sea", "location": {"latitude": 60.0, "longitude": -175.0}}, {"name": " Northwest Arctic Borough", "location": {"latitude": 66.83333, "longitude": -161.00056}}, {"name": " DC Ranch", "location": {"latitude": 33.66754, "longitude": -111.86542}}, {"name": " Blue Earth County", "location": {"latitude": 44.03459, "longitude": -94.06703}}, {"name": " Shanghai", "location": {"latitude": 31.22222, "longitude": 121.45806}}, {"name": " Ocean County", "location": {"latitude": 39.866, "longitude": -74.25003}}, {"name": " Northwest Arctic Borough", "location": {"latitude": 66.83333, "longitude": -161.00056}}, {"name": " Engineers Camp", "location": {"latitude": -42.55829, "longitude": 172.35014}}, {"name": " Northwest Arctic Borough", "location": {"latitude": 66.83333, "longitude": -161.00056}}, {"name": " South America", "location": {"latitude": -14.60485, "longitude": -57.65625}}, {"name": " Reacomodo Nuevo M\u00e9xico (Kil\u00f3metro 59)", "location": {"latitude": 17.26528, "longitude": -93.56889}}, {"name": " Mineralnye Vody", "location": {"latitude": 44.21028, "longitude": 43.13528}}, {"name": " Northwest Arctic Borough", "location": {"latitude": 66.83333, "longitude": -161.00056}}, {"name": " Northwest Arctic Borough", "location": {"latitude": 66.83333, "longitude": -161.00056}}, {"name": " Ivotuk Hills", "location": {"latitude": 68.47417, "longitude": -155.56556}}, {"name": " Ostanovochnyy Punkt 355 km", "location": {"latitude": 53.0297, "longitude": 38.2145}}, {"name": " South America", "location": {"latitude": -14.60485, "longitude": -57.65625}}, {"name": " Kingdom of Saudi Arabia", "location": {"latitude": 25.0, "longitude": 45.0}}, {"name": " Kuskokwim River", "location": {"latitude": 60.08306, "longitude": -162.33389}}, {"name": " Rumford", "location": {"latitude": 44.55367, "longitude": -70.5509}}, {"name": " Northwest Arctic Borough", "location": {"latitude": 66.83333, "longitude": -161.00056}}, {"name": " Emerald No. 277", "location": {"latitude": 51.50005, "longitude": -103.91775}}, {"name": " Rocanville No. 151", "location": {"latitude": 50.4167, "longitude": -101.75094}}, {"name": " Emerald No. 277", "location": {"latitude": 51.50005, "longitude": -103.91775}}, {"name": " Traverse County", "location": {"latitude": 45.77218, "longitude": -96.47164}}, {"name": " Northwest Arctic Borough", "location": {"latitude": 66.83333, "longitude": -161.00056}},